[
  {
    "ID": 1,
    "Airport Name": "Goroka Airport",
    "City": "Goroka",
    "Country": "Papua New Guinea",
    "Airport Code": "GKA",
    "": "AYGA",
    "Latitude": -6.081689834590001,
    "Longitude": 145.391998291
  },
  {
    "ID": 2,
    "Airport Name": "Madang Airport",
    "City": "Madang",
    "Country": "Papua New Guinea",
    "Airport Code": "MAG",
    "": "AYMD",
    "Latitude": -5.20707988739,
    "Longitude": 145.789001465
  },
  {
    "ID": 3,
    "Airport Name": "Mount Hagen Kagamuga Airport",
    "City": "Mount Hagen",
    "Country": "Papua New Guinea",
    "Airport Code": "HGU",
    "": "AYMH",
    "Latitude": -5.826789855957031,
    "Longitude": 144.29600524902344
  },
  {
    "ID": 4,
    "Airport Name": "Nadzab Airport",
    "City": "Nadzab",
    "Country": "Papua New Guinea",
    "Airport Code": "LAE",
    "": "AYNZ",
    "Latitude": -6.569803,
    "Longitude": 146.725977
  },
  {
    "ID": 5,
    "Airport Name": "Port Moresby Jacksons International Airport",
    "City": "Port Moresby",
    "Country": "Papua New Guinea",
    "Airport Code": "POM",
    "": "AYPY",
    "Latitude": -9.443380355834961,
    "Longitude": 147.22000122070312
  },
  {
    "ID": 6,
    "Airport Name": "Wewak International Airport",
    "City": "Wewak",
    "Country": "Papua New Guinea",
    "Airport Code": "WWK",
    "": "AYWK",
    "Latitude": -3.58383011818,
    "Longitude": 143.669006348
  },
  {
    "ID": 7,
    "Airport Name": "Narsarsuaq Airport",
    "City": "Narssarssuaq",
    "Country": "Greenland",
    "Airport Code": "UAK",
    "": "BGBW",
    "Latitude": 61.1604995728,
    "Longitude": -45.4259986877
  },
  {
    "ID": 8,
    "Airport Name": "Godthaab / Nuuk Airport",
    "City": "Godthaab",
    "Country": "Greenland",
    "Airport Code": "GOH",
    "": "BGGH",
    "Latitude": 64.19090271,
    "Longitude": -51.6781005859
  },
  {
    "ID": 9,
    "Airport Name": "Kangerlussuaq Airport",
    "City": "Sondrestrom",
    "Country": "Greenland",
    "Airport Code": "SFJ",
    "": "BGSF",
    "Latitude": 67.0122218992,
    "Longitude": -50.7116031647
  },
  {
    "ID": 10,
    "Airport Name": "Thule Air Base",
    "City": "Thule",
    "Country": "Greenland",
    "Airport Code": "THU",
    "": "BGTL",
    "Latitude": 76.5311965942,
    "Longitude": -68.7032012939
  },
  {
    "ID": 11,
    "Airport Name": "Akureyri Airport",
    "City": "Akureyri",
    "Country": "Iceland",
    "Airport Code": "AEY",
    "": "BIAR",
    "Latitude": 65.66000366210938,
    "Longitude": -18.07270050048828
  },
  {
    "ID": 12,
    "Airport Name": "Egilsstaðir Airport",
    "City": "Egilsstadir",
    "Country": "Iceland",
    "Airport Code": "EGS",
    "": "BIEG",
    "Latitude": 65.2833023071289,
    "Longitude": -14.401399612426758
  },
  {
    "ID": 13,
    "Airport Name": "Hornafjörður Airport",
    "City": "Hofn",
    "Country": "Iceland",
    "Airport Code": "HFN",
    "": "BIHN",
    "Latitude": 64.295601,
    "Longitude": -15.2272
  },
  {
    "ID": 14,
    "Airport Name": "Húsavík Airport",
    "City": "Husavik",
    "Country": "Iceland",
    "Airport Code": "HZK",
    "": "BIHU",
    "Latitude": 65.952301,
    "Longitude": -17.426001
  },
  {
    "ID": 15,
    "Airport Name": "Ísafjörður Airport",
    "City": "Isafjordur",
    "Country": "Iceland",
    "Airport Code": "IFJ",
    "": "BIIS",
    "Latitude": 66.05809783935547,
    "Longitude": -23.135299682617188
  },
  {
    "ID": 16,
    "Airport Name": "Keflavik International Airport",
    "City": "Keflavik",
    "Country": "Iceland",
    "Airport Code": "KEF",
    "": "BIKF",
    "Latitude": 63.985000610352,
    "Longitude": -22.605600357056
  },
  {
    "ID": 17,
    "Airport Name": "Patreksfjörður Airport",
    "City": "Patreksfjordur",
    "Country": "Iceland",
    "Airport Code": "PFJ",
    "": "BIPA",
    "Latitude": 65.555801,
    "Longitude": -23.965
  },
  {
    "ID": 18,
    "Airport Name": "Reykjavik Airport",
    "City": "Reykjavik",
    "Country": "Iceland",
    "Airport Code": "RKV",
    "": "BIRK",
    "Latitude": 64.1299972534,
    "Longitude": -21.9405994415
  },
  {
    "ID": 19,
    "Airport Name": "Siglufjörður Airport",
    "City": "Siglufjordur",
    "Country": "Iceland",
    "Airport Code": "SIJ",
    "": "BISI",
    "Latitude": 66.133301,
    "Longitude": -18.9167
  },
  {
    "ID": 20,
    "Airport Name": "Vestmannaeyjar Airport",
    "City": "Vestmannaeyjar",
    "Country": "Iceland",
    "Airport Code": "VEY",
    "": "BIVM",
    "Latitude": 63.42430114746094,
    "Longitude": -20.278900146484375
  },
  {
    "ID": 21,
    "Airport Name": "Sault Ste Marie Airport",
    "City": "Sault Sainte Marie",
    "Country": "Canada",
    "Airport Code": "YAM",
    "": "CYAM",
    "Latitude": 46.48500061035156,
    "Longitude": -84.5093994140625
  },
  {
    "ID": 22,
    "Airport Name": "Winnipeg / St. Andrews Airport",
    "City": "Winnipeg",
    "Country": "Canada",
    "Airport Code": "\\N",
    "": "CYAV",
    "Latitude": 50.0564002991,
    "Longitude": -97.03250122070001
  },
  {
    "ID": 23,
    "Airport Name": "Halifax / CFB Shearwater Heliport",
    "City": "Halifax",
    "Country": "Canada",
    "Airport Code": "\\N",
    "": "CYAW",
    "Latitude": 44.639702,
    "Longitude": -63.499401
  },
  {
    "ID": 24,
    "Airport Name": "St. Anthony Airport",
    "City": "St. Anthony",
    "Country": "Canada",
    "Airport Code": "YAY",
    "": "CYAY",
    "Latitude": 51.3918991089,
    "Longitude": -56.083099365200006
  },
  {
    "ID": 25,
    "Airport Name": "Tofino / Long Beach Airport",
    "City": "Tofino",
    "Country": "Canada",
    "Airport Code": "YAZ",
    "": "CYAZ",
    "Latitude": 49.079833,
    "Longitude": -125.775583
  },
  {
    "ID": 26,
    "Airport Name": "Kugaaruk Airport",
    "City": "Pelly Bay",
    "Country": "Canada",
    "Airport Code": "YBB",
    "": "CYBB",
    "Latitude": 68.534401,
    "Longitude": -89.808098
  },
  {
    "ID": 27,
    "Airport Name": "Baie Comeau Airport",
    "City": "Baie Comeau",
    "Country": "Canada",
    "Airport Code": "YBC",
    "": "CYBC",
    "Latitude": 49.13249969482422,
    "Longitude": -68.20439910888672
  },
  {
    "ID": 28,
    "Airport Name": "CFB Bagotville",
    "City": "Bagotville",
    "Country": "Canada",
    "Airport Code": "YBG",
    "": "CYBG",
    "Latitude": 48.33060073852539,
    "Longitude": -70.99639892578125
  },
  {
    "ID": 29,
    "Airport Name": "Baker Lake Airport",
    "City": "Baker Lake",
    "Country": "Canada",
    "Airport Code": "YBK",
    "": "CYBK",
    "Latitude": 64.29889678960001,
    "Longitude": -96.077796936
  },
  {
    "ID": 30,
    "Airport Name": "Campbell River Airport",
    "City": "Campbell River",
    "Country": "Canada",
    "Airport Code": "YBL",
    "": "CYBL",
    "Latitude": 49.950801849365234,
    "Longitude": -125.27100372314453
  },
  {
    "ID": 31,
    "Airport Name": "Brandon Municipal Airport",
    "City": "Brandon",
    "Country": "Canada",
    "Airport Code": "YBR",
    "": "CYBR",
    "Latitude": 49.91,
    "Longitude": -99.951897
  },
  {
    "ID": 32,
    "Airport Name": "Cambridge Bay Airport",
    "City": "Cambridge Bay",
    "Country": "Canada",
    "Airport Code": "YCB",
    "": "CYCB",
    "Latitude": 69.1081008911,
    "Longitude": -105.138000488
  },
  {
    "ID": 33,
    "Airport Name": "Nanaimo Airport",
    "City": "Nanaimo",
    "Country": "Canada",
    "Airport Code": "YCD",
    "": "CYCD",
    "Latitude": 49.054970224899996,
    "Longitude": -123.869862556
  },
  {
    "ID": 34,
    "Airport Name": "Castlegar/West Kootenay Regional Airport",
    "City": "Castlegar",
    "Country": "Canada",
    "Airport Code": "YCG",
    "": "CYCG",
    "Latitude": 49.2963981628,
    "Longitude": -117.632003784
  },
  {
    "ID": 35,
    "Airport Name": "Miramichi Airport",
    "City": "Chatham",
    "Country": "Canada",
    "Airport Code": "YCH",
    "": "CYCH",
    "Latitude": 47.007801,
    "Longitude": -65.449203
  },
  {
    "ID": 36,
    "Airport Name": "Charlo Airport",
    "City": "Charlo",
    "Country": "Canada",
    "Airport Code": "YCL",
    "": "CYCL",
    "Latitude": 47.990799,
    "Longitude": -66.330299
  },
  {
    "ID": 37,
    "Airport Name": "Kugluktuk Airport",
    "City": "Coppermine",
    "Country": "Canada",
    "Airport Code": "YCO",
    "": "CYCO",
    "Latitude": 67.816704,
    "Longitude": -115.143997
  },
  {
    "ID": 38,
    "Airport Name": "Coronation Airport",
    "City": "Coronation",
    "Country": "Canada",
    "Airport Code": "YCT",
    "": "CYCT",
    "Latitude": 52.0750007629,
    "Longitude": -111.444999695
  },
  {
    "ID": 39,
    "Airport Name": "Chilliwack Airport",
    "City": "Chilliwack",
    "Country": "Canada",
    "Airport Code": "YCW",
    "": "CYCW",
    "Latitude": 49.1528015137,
    "Longitude": -121.939002991
  },
  {
    "ID": 40,
    "Airport Name": "Clyde River Airport",
    "City": "Clyde River",
    "Country": "Canada",
    "Airport Code": "YCY",
    "": "CYCY",
    "Latitude": 70.4860992432,
    "Longitude": -68.5167007446
  },
  {
    "ID": 41,
    "Airport Name": "Coral Harbour Airport",
    "City": "Coral Harbour",
    "Country": "Canada",
    "Airport Code": "YZS",
    "": "CYZS",
    "Latitude": 64.1932983398,
    "Longitude": -83.3593978882
  },
  {
    "ID": 42,
    "Airport Name": "Dawson City Airport",
    "City": "Dawson",
    "Country": "Canada",
    "Airport Code": "YDA",
    "": "CYDA",
    "Latitude": 64.04309844970703,
    "Longitude": -139.1280059814453
  },
  {
    "ID": 43,
    "Airport Name": "Burwash Airport",
    "City": "Burwash",
    "Country": "Canada",
    "Airport Code": "YDB",
    "": "CYDB",
    "Latitude": 61.37110137939453,
    "Longitude": -139.04100036621094
  },
  {
    "ID": 44,
    "Airport Name": "Princeton Airport",
    "City": "Princeton",
    "Country": "Canada",
    "Airport Code": "\\N",
    "": "CYDC",
    "Latitude": 49.4681015015,
    "Longitude": -120.511001587
  },
  {
    "ID": 45,
    "Airport Name": "Deer Lake Airport",
    "City": "Deer Lake",
    "Country": "Canada",
    "Airport Code": "YDF",
    "": "CYDF",
    "Latitude": 49.21080017089844,
    "Longitude": -57.39139938354492
  },
  {
    "ID": 46,
    "Airport Name": "Dease Lake Airport",
    "City": "Dease Lake",
    "Country": "Canada",
    "Airport Code": "YDL",
    "": "CYDL",
    "Latitude": 58.4221992493,
    "Longitude": -130.031997681
  },
  {
    "ID": 47,
    "Airport Name": "Dauphin Barker Airport",
    "City": "Dauphin",
    "Country": "Canada",
    "Airport Code": "YDN",
    "": "CYDN",
    "Latitude": 51.100799560546875,
    "Longitude": -100.052001953125
  },
  {
    "ID": 48,
    "Airport Name": "Dawson Creek Airport",
    "City": "Dawson Creek",
    "Country": "Canada",
    "Airport Code": "YDQ",
    "": "CYDQ",
    "Latitude": 55.7422981262207,
    "Longitude": -120.18299865722656
  },
  {
    "ID": 49,
    "Airport Name": "Edmonton International Airport",
    "City": "Edmonton",
    "Country": "Canada",
    "Airport Code": "YEG",
    "": "CYEG",
    "Latitude": 53.309700012200004,
    "Longitude": -113.580001831
  },
  {
    "ID": 50,
    "Airport Name": "Arviat Airport",
    "City": "Eskimo Point",
    "Country": "Canada",
    "Airport Code": "YEK",
    "": "CYEK",
    "Latitude": 61.0942001343,
    "Longitude": -94.07080078119999
  },
  {
    "ID": 51,
    "Airport Name": "Estevan Airport",
    "City": "Estevan",
    "Country": "Canada",
    "Airport Code": "YEN",
    "": "CYEN",
    "Latitude": 49.2103004456,
    "Longitude": -102.966003418
  },
  {
    "ID": 52,
    "Airport Name": "Edson Airport",
    "City": "Edson",
    "Country": "Canada",
    "Airport Code": "YET",
    "": "CYET",
    "Latitude": 53.578899383499994,
    "Longitude": -116.464996338
  },
  {
    "ID": 53,
    "Airport Name": "Eureka Airport",
    "City": "Eureka",
    "Country": "Canada",
    "Airport Code": "YEU",
    "": "CYEU",
    "Latitude": 79.9946975708,
    "Longitude": -85.814201355
  },
  {
    "ID": 54,
    "Airport Name": "Inuvik Mike Zubko Airport",
    "City": "Inuvik",
    "Country": "Canada",
    "Airport Code": "YEV",
    "": "CYEV",
    "Latitude": 68.30419921880001,
    "Longitude": -133.483001709
  },
  {
    "ID": 55,
    "Airport Name": "Iqaluit Airport",
    "City": "Iqaluit",
    "Country": "Canada",
    "Airport Code": "YFB",
    "": "CYFB",
    "Latitude": 63.756402,
    "Longitude": -68.555801
  },
  {
    "ID": 56,
    "Airport Name": "Fredericton Airport",
    "City": "Fredericton",
    "Country": "Canada",
    "Airport Code": "YFC",
    "": "CYFC",
    "Latitude": 45.868900299072266,
    "Longitude": -66.53720092773438
  },
  {
    "ID": 57,
    "Airport Name": "Forestville Airport",
    "City": "Forestville",
    "Country": "Canada",
    "Airport Code": "YFE",
    "": "CYFE",
    "Latitude": 48.74610137939453,
    "Longitude": -69.09719848632812
  },
  {
    "ID": 58,
    "Airport Name": "Flin Flon Airport",
    "City": "Flin Flon",
    "Country": "Canada",
    "Airport Code": "YFO",
    "": "CYFO",
    "Latitude": 54.6781005859375,
    "Longitude": -101.68199920654297
  },
  {
    "ID": 59,
    "Airport Name": "Fort Resolution Airport",
    "City": "Fort Resolution",
    "Country": "Canada",
    "Airport Code": "YFR",
    "": "CYFR",
    "Latitude": 61.1808013916,
    "Longitude": -113.690002441
  },
  {
    "ID": 60,
    "Airport Name": "Fort Simpson Airport",
    "City": "Fort Simpson",
    "Country": "Canada",
    "Airport Code": "YFS",
    "": "CYFS",
    "Latitude": 61.76020050048828,
    "Longitude": -121.23699951171875
  },
  {
    "ID": 61,
    "Airport Name": "Kingston Norman Rogers Airport",
    "City": "Kingston",
    "Country": "Canada",
    "Airport Code": "YGK",
    "": "CYGK",
    "Latitude": 44.22529983520508,
    "Longitude": -76.5969009399414
  },
  {
    "ID": 62,
    "Airport Name": "La Grande Rivière Airport",
    "City": "La Grande Riviere",
    "Country": "Canada",
    "Airport Code": "YGL",
    "": "CYGL",
    "Latitude": 53.625301361083984,
    "Longitude": -77.7042007446289
  },
  {
    "ID": 63,
    "Airport Name": "Gaspé (Michel-Pouliot) Airport",
    "City": "Gaspe",
    "Country": "Canada",
    "Airport Code": "YGP",
    "": "CYGP",
    "Latitude": 48.7752990723,
    "Longitude": -64.4785995483
  },
  {
    "ID": 64,
    "Airport Name": "Geraldton Greenstone Regional Airport",
    "City": "Geraldton",
    "Country": "Canada",
    "Airport Code": "YGQ",
    "": "CYGQ",
    "Latitude": 49.77830123901367,
    "Longitude": -86.93939971923828
  },
  {
    "ID": 65,
    "Airport Name": "Îles-de-la-Madeleine Airport",
    "City": "Iles De La Madeleine",
    "Country": "Canada",
    "Airport Code": "YGR",
    "": "CYGR",
    "Latitude": 47.42470169067383,
    "Longitude": -61.778099060058594
  },
  {
    "ID": 66,
    "Airport Name": "Hudson Bay Airport",
    "City": "Hudson Bay",
    "Country": "Canada",
    "Airport Code": "YHB",
    "": "CYHB",
    "Latitude": 52.8166999817,
    "Longitude": -102.310997009
  },
  {
    "ID": 67,
    "Airport Name": "Dryden Regional Airport",
    "City": "Dryden",
    "Country": "Canada",
    "Airport Code": "YHD",
    "": "CYHD",
    "Latitude": 49.831699,
    "Longitude": -92.744202
  },
  {
    "ID": 68,
    "Airport Name": "Ulukhaktok Holman Airport",
    "City": "Holman Island",
    "Country": "Canada",
    "Airport Code": "YHI",
    "": "CYHI",
    "Latitude": 70.76280212402344,
    "Longitude": -117.80599975585938
  },
  {
    "ID": 69,
    "Airport Name": "Gjoa Haven Airport",
    "City": "Gjoa Haven",
    "Country": "Canada",
    "Airport Code": "YHK",
    "": "CYHK",
    "Latitude": 68.635597229,
    "Longitude": -95.84970092770001
  },
  {
    "ID": 70,
    "Airport Name": "John C. Munro Hamilton International Airport",
    "City": "Hamilton",
    "Country": "Canada",
    "Airport Code": "YHM",
    "": "CYHM",
    "Latitude": 43.173599243199995,
    "Longitude": -79.93499755859999
  },
  {
    "ID": 71,
    "Airport Name": "Montréal / Saint-Hubert Airport",
    "City": "Montreal",
    "Country": "Canada",
    "Airport Code": "YHU",
    "": "CYHU",
    "Latitude": 45.5175018311,
    "Longitude": -73.4169006348
  },
  {
    "ID": 72,
    "Airport Name": "Hay River / Merlyn Carter Airport",
    "City": "Hay River",
    "Country": "Canada",
    "Airport Code": "YHY",
    "": "CYHY",
    "Latitude": 60.8396987915,
    "Longitude": -115.782997131
  },
  {
    "ID": 73,
    "Airport Name": "Halifax / Stanfield International Airport",
    "City": "Halifax",
    "Country": "Canada",
    "Airport Code": "YHZ",
    "": "CYHZ",
    "Latitude": 44.8807983398,
    "Longitude": -63.5085983276
  },
  {
    "ID": 74,
    "Airport Name": "Atikokan Municipal Airport",
    "City": "Atikokan",
    "Country": "Canada",
    "Airport Code": "YIB",
    "": "CYIB",
    "Latitude": 48.7738990784,
    "Longitude": -91.6386032104
  },
  {
    "ID": 75,
    "Airport Name": "Pond Inlet Airport",
    "City": "Pond Inlet",
    "Country": "Canada",
    "Airport Code": "YIO",
    "": "CYIO",
    "Latitude": 72.6832962036,
    "Longitude": -77.9666976929
  },
  {
    "ID": 76,
    "Airport Name": "St Jean Airport",
    "City": "St. Jean",
    "Country": "Canada",
    "Airport Code": "YJN",
    "": "CYJN",
    "Latitude": 45.29439926147461,
    "Longitude": -73.28109741210938
  },
  {
    "ID": 77,
    "Airport Name": "Stephenville Airport",
    "City": "Stephenville",
    "Country": "Canada",
    "Airport Code": "YJT",
    "": "CYJT",
    "Latitude": 48.5442008972168,
    "Longitude": -58.54999923706055
  },
  {
    "ID": 78,
    "Airport Name": "Kamloops Airport",
    "City": "Kamloops",
    "Country": "Canada",
    "Airport Code": "YKA",
    "": "CYKA",
    "Latitude": 50.7022018433,
    "Longitude": -120.444000244
  },
  {
    "ID": 79,
    "Airport Name": "Waterloo Airport",
    "City": "Waterloo",
    "Country": "Canada",
    "Airport Code": "YKF",
    "": "CYKF",
    "Latitude": 43.460800170899994,
    "Longitude": -80.3786010742
  },
  {
    "ID": 80,
    "Airport Name": "Schefferville Airport",
    "City": "Schefferville",
    "Country": "Canada",
    "Airport Code": "YKL",
    "": "CYKL",
    "Latitude": 54.805301666259766,
    "Longitude": -66.8052978515625
  },
  {
    "ID": 81,
    "Airport Name": "Kindersley Airport",
    "City": "Kindersley",
    "Country": "Canada",
    "Airport Code": "YKY",
    "": "CYKY",
    "Latitude": 51.5175018311,
    "Longitude": -109.180999756
  },
  {
    "ID": 82,
    "Airport Name": "Buttonville Municipal Airport",
    "City": "Toronto",
    "Country": "Canada",
    "Airport Code": "YKZ",
    "": "CYKZ",
    "Latitude": 43.86220169067383,
    "Longitude": -79.37000274658203
  },
  {
    "ID": 83,
    "Airport Name": "Chapleau Airport",
    "City": "Chapleau",
    "Country": "Canada",
    "Airport Code": "YLD",
    "": "CYLD",
    "Latitude": 47.81999969482422,
    "Longitude": -83.3467025756836
  },
  {
    "ID": 84,
    "Airport Name": "Meadow Lake Airport",
    "City": "Meadow Lake",
    "Country": "Canada",
    "Airport Code": "YLJ",
    "": "CYLJ",
    "Latitude": 54.125301361083984,
    "Longitude": -108.52300262451172
  },
  {
    "ID": 85,
    "Airport Name": "Lloydminster Airport",
    "City": "Lloydminster",
    "Country": "Canada",
    "Airport Code": "YLL",
    "": "CYLL",
    "Latitude": 53.309200286865234,
    "Longitude": -110.072998046875
  },
  {
    "ID": 86,
    "Airport Name": "Alert Airport",
    "City": "Alert",
    "Country": "Canada",
    "Airport Code": "YLT",
    "": "CYLT",
    "Latitude": 82.51779937740001,
    "Longitude": -62.2806015015
  },
  {
    "ID": 87,
    "Airport Name": "Kelowna International Airport",
    "City": "Kelowna",
    "Country": "Canada",
    "Airport Code": "YLW",
    "": "CYLW",
    "Latitude": 49.9561004639,
    "Longitude": -119.377998352
  },
  {
    "ID": 88,
    "Airport Name": "Mayo Airport",
    "City": "Mayo",
    "Country": "Canada",
    "Airport Code": "YMA",
    "": "CYMA",
    "Latitude": 63.61640167236328,
    "Longitude": -135.8679962158203
  },
  {
    "ID": 89,
    "Airport Name": "Moose Jaw Air Vice Marshal C. M. McEwen Airport",
    "City": "Moose Jaw",
    "Country": "Canada",
    "Airport Code": "YMJ",
    "": "CYMJ",
    "Latitude": 50.330299377441406,
    "Longitude": -105.55899810791016
  },
  {
    "ID": 90,
    "Airport Name": "Fort McMurray Airport",
    "City": "Fort Mcmurray",
    "Country": "Canada",
    "Airport Code": "YMM",
    "": "CYMM",
    "Latitude": 56.653301239,
    "Longitude": -111.222000122
  },
  {
    "ID": 91,
    "Airport Name": "Moosonee Airport",
    "City": "Moosonee",
    "Country": "Canada",
    "Airport Code": "YMO",
    "": "CYMO",
    "Latitude": 51.291099548339844,
    "Longitude": -80.60780334472656
  },
  {
    "ID": 92,
    "Airport Name": "Maniwaki Airport",
    "City": "Maniwaki",
    "Country": "Canada",
    "Airport Code": "YMW",
    "": "CYMW",
    "Latitude": 46.2728004456,
    "Longitude": -75.9906005859
  },
  {
    "ID": 93,
    "Airport Name": "Montreal International (Mirabel) Airport",
    "City": "Montreal",
    "Country": "Canada",
    "Airport Code": "YMX",
    "": "CYMX",
    "Latitude": 45.679501,
    "Longitude": -74.038696
  },
  {
    "ID": 94,
    "Airport Name": "Natashquan Airport",
    "City": "Natashquan",
    "Country": "Canada",
    "Airport Code": "YNA",
    "": "CYNA",
    "Latitude": 50.189998626708984,
    "Longitude": -61.78919982910156
  },
  {
    "ID": 95,
    "Airport Name": "Ottawa / Gatineau Airport",
    "City": "Gatineau",
    "Country": "Canada",
    "Airport Code": "YND",
    "": "CYND",
    "Latitude": 45.521701812699995,
    "Longitude": -75.5635986328
  },
  {
    "ID": 96,
    "Airport Name": "Matagami Airport",
    "City": "Matagami",
    "Country": "Canada",
    "Airport Code": "YNM",
    "": "CYNM",
    "Latitude": 49.76169967651367,
    "Longitude": -77.80280303955078
  },
  {
    "ID": 97,
    "Airport Name": "Old Crow Airport",
    "City": "Old Crow",
    "Country": "Canada",
    "Airport Code": "YOC",
    "": "CYOC",
    "Latitude": 67.57060241699219,
    "Longitude": -139.83900451660156
  },
  {
    "ID": 98,
    "Airport Name": "CFB Cold Lake",
    "City": "Cold Lake",
    "Country": "Canada",
    "Airport Code": "YOD",
    "": "CYOD",
    "Latitude": 54.404998779296875,
    "Longitude": -110.27899932861328
  },
  {
    "ID": 99,
    "Airport Name": "High Level Airport",
    "City": "High Level",
    "Country": "Canada",
    "Airport Code": "YOJ",
    "": "CYOJ",
    "Latitude": 58.62139892578125,
    "Longitude": -117.16500091552734
  },
  {
    "ID": 100,
    "Airport Name": "Ottawa Macdonald-Cartier International Airport",
    "City": "Ottawa",
    "Country": "Canada",
    "Airport Code": "YOW",
    "": "CYOW",
    "Latitude": 45.3224983215332,
    "Longitude": -75.66919708251953
  },
  {
    "ID": 101,
    "Airport Name": "Prince Albert Glass Field",
    "City": "Prince Albert",
    "Country": "Canada",
    "Airport Code": "YPA",
    "": "CYPA",
    "Latitude": 53.214199066199996,
    "Longitude": -105.672996521
  },
  {
    "ID": 102,
    "Airport Name": "Peace River Airport",
    "City": "Peace River",
    "Country": "Canada",
    "Airport Code": "YPE",
    "": "CYPE",
    "Latitude": 56.226898,
    "Longitude": -117.446999
  },
  {
    "ID": 103,
    "Airport Name": "Southport Airport",
    "City": "Portage-la-prairie",
    "Country": "Canada",
    "Airport Code": "YPG",
    "": "CYPG",
    "Latitude": 49.903099,
    "Longitude": -98.273817
  },
  {
    "ID": 104,
    "Airport Name": "Pitt Meadows Airport",
    "City": "Pitt Meadows",
    "Country": "Canada",
    "Airport Code": "\\N",
    "": "CYPK",
    "Latitude": 49.21609878540039,
    "Longitude": -122.70999908447266
  },
  {
    "ID": 105,
    "Airport Name": "Pickle Lake Airport",
    "City": "Pickle Lake",
    "Country": "Canada",
    "Airport Code": "YPL",
    "": "CYPL",
    "Latitude": 51.4463996887207,
    "Longitude": -90.21420288085938
  },
  {
    "ID": 106,
    "Airport Name": "Port Menier Airport",
    "City": "Port Menier",
    "Country": "Canada",
    "Airport Code": "YPN",
    "": "CYPN",
    "Latitude": 49.83639907836914,
    "Longitude": -64.2885971069336
  },
  {
    "ID": 107,
    "Airport Name": "Peterborough Airport",
    "City": "Peterborough",
    "Country": "Canada",
    "Airport Code": "YPQ",
    "": "CYPQ",
    "Latitude": 44.22999954223633,
    "Longitude": -78.36329650878906
  },
  {
    "ID": 108,
    "Airport Name": "Prince Rupert Airport",
    "City": "Prince Pupert",
    "Country": "Canada",
    "Airport Code": "YPR",
    "": "CYPR",
    "Latitude": 54.286098480199996,
    "Longitude": -130.445007324
  },
  {
    "ID": 109,
    "Airport Name": "Fort Chipewyan Airport",
    "City": "Fort Chipewyan",
    "Country": "Canada",
    "Airport Code": "YPY",
    "": "CYPY",
    "Latitude": 58.7672004699707,
    "Longitude": -111.11699676513672
  },
  {
    "ID": 110,
    "Airport Name": "Muskoka Airport",
    "City": "Muskoka",
    "Country": "Canada",
    "Airport Code": "YQA",
    "": "CYQA",
    "Latitude": 44.974700927734375,
    "Longitude": -79.30329895019531
  },
  {
    "ID": 111,
    "Airport Name": "Quebec Jean Lesage International Airport",
    "City": "Quebec",
    "Country": "Canada",
    "Airport Code": "YQB",
    "": "CYQB",
    "Latitude": 46.7911,
    "Longitude": -71.393303
  },
  {
    "ID": 112,
    "Airport Name": "Red Deer Regional Airport",
    "City": "Red Deer Industrial",
    "Country": "Canada",
    "Airport Code": "YQF",
    "": "CYQF",
    "Latitude": 52.18220138549805,
    "Longitude": -113.89399719238281
  },
  {
    "ID": 113,
    "Airport Name": "Windsor Airport",
    "City": "Windsor",
    "Country": "Canada",
    "Airport Code": "YQG",
    "": "CYQG",
    "Latitude": 42.27560043334961,
    "Longitude": -82.95559692382812
  },
  {
    "ID": 114,
    "Airport Name": "Watson Lake Airport",
    "City": "Watson Lake",
    "Country": "Canada",
    "Airport Code": "YQH",
    "": "CYQH",
    "Latitude": 60.11640167236328,
    "Longitude": -128.82200622558594
  },
  {
    "ID": 115,
    "Airport Name": "Kenora Airport",
    "City": "Kenora",
    "Country": "Canada",
    "Airport Code": "YQK",
    "": "CYQK",
    "Latitude": 49.788299560546875,
    "Longitude": -94.36309814453125
  },
  {
    "ID": 116,
    "Airport Name": "Lethbridge County Airport",
    "City": "Lethbridge",
    "Country": "Canada",
    "Airport Code": "YQL",
    "": "CYQL",
    "Latitude": 49.6302986145,
    "Longitude": -112.800003052
  },
  {
    "ID": 117,
    "Airport Name": "Greater Moncton International Airport",
    "City": "Moncton",
    "Country": "Canada",
    "Airport Code": "YQM",
    "": "CYQM",
    "Latitude": 46.11220169067383,
    "Longitude": -64.67859649658203
  },
  {
    "ID": 119,
    "Airport Name": "Comox Airport",
    "City": "Comox",
    "Country": "Canada",
    "Airport Code": "YQQ",
    "": "CYQQ",
    "Latitude": 49.71080017089844,
    "Longitude": -124.88700103759766
  },
  {
    "ID": 120,
    "Airport Name": "Regina International Airport",
    "City": "Regina",
    "Country": "Canada",
    "Airport Code": "YQR",
    "": "CYQR",
    "Latitude": 50.43190002441406,
    "Longitude": -104.66600036621094
  },
  {
    "ID": 121,
    "Airport Name": "Thunder Bay Airport",
    "City": "Thunder Bay",
    "Country": "Canada",
    "Airport Code": "YQT",
    "": "CYQT",
    "Latitude": 48.37189865112305,
    "Longitude": -89.32389831542969
  },
  {
    "ID": 122,
    "Airport Name": "Grande Prairie Airport",
    "City": "Grande Prairie",
    "Country": "Canada",
    "Airport Code": "YQU",
    "": "CYQU",
    "Latitude": 55.1796989441,
    "Longitude": -118.885002136
  },
  {
    "ID": 123,
    "Airport Name": "Yorkton Municipal Airport",
    "City": "Yorkton",
    "Country": "Canada",
    "Airport Code": "YQV",
    "": "CYQV",
    "Latitude": 51.26470184326172,
    "Longitude": -102.46199798583984
  },
  {
    "ID": 124,
    "Airport Name": "North Battleford Airport",
    "City": "North Battleford",
    "Country": "Canada",
    "Airport Code": "YQW",
    "": "CYQW",
    "Latitude": 52.76919937133789,
    "Longitude": -108.24400329589844
  },
  {
    "ID": 125,
    "Airport Name": "Gander International Airport",
    "City": "Gander",
    "Country": "Canada",
    "Airport Code": "YQX",
    "": "CYQX",
    "Latitude": 48.9369010925293,
    "Longitude": -54.56809997558594
  },
  {
    "ID": 126,
    "Airport Name": "Sydney / J.A. Douglas McCurdy Airport",
    "City": "Sydney",
    "Country": "Canada",
    "Airport Code": "YQY",
    "": "CYQY",
    "Latitude": 46.1614,
    "Longitude": -60.047798
  },
  {
    "ID": 127,
    "Airport Name": "Quesnel Airport",
    "City": "Quesnel",
    "Country": "Canada",
    "Airport Code": "YQZ",
    "": "CYQZ",
    "Latitude": 53.026100158691406,
    "Longitude": -122.51000213623047
  },
  {
    "ID": 128,
    "Airport Name": "Resolute Bay Airport",
    "City": "Resolute",
    "Country": "Canada",
    "Airport Code": "YRB",
    "": "CYRB",
    "Latitude": 74.7169036865,
    "Longitude": -94.9693984985
  },
  {
    "ID": 129,
    "Airport Name": "Rivière-du-Loup Airport",
    "City": "Riviere Du Loup",
    "Country": "Canada",
    "Airport Code": "YRI",
    "": "CYRI",
    "Latitude": 47.764400482177734,
    "Longitude": -69.58470153808594
  },
  {
    "ID": 130,
    "Airport Name": "Roberval Airport",
    "City": "Roberval",
    "Country": "Canada",
    "Airport Code": "YRJ",
    "": "CYRJ",
    "Latitude": 48.52000045776367,
    "Longitude": -72.2656021118164
  },
  {
    "ID": 131,
    "Airport Name": "Rocky Mountain House Airport",
    "City": "Rocky Mountain House",
    "Country": "Canada",
    "Airport Code": "YRM",
    "": "CYRM",
    "Latitude": 52.4296989441,
    "Longitude": -114.903999329
  },
  {
    "ID": 132,
    "Airport Name": "Rankin Inlet Airport",
    "City": "Rankin Inlet",
    "Country": "Canada",
    "Airport Code": "YRT",
    "": "CYRT",
    "Latitude": 62.8114013672,
    "Longitude": -92.1157989502
  },
  {
    "ID": 133,
    "Airport Name": "Sudbury Airport",
    "City": "Sudbury",
    "Country": "Canada",
    "Airport Code": "YSB",
    "": "CYSB",
    "Latitude": 46.625,
    "Longitude": -80.79889678955078
  },
  {
    "ID": 134,
    "Airport Name": "Sherbrooke Airport",
    "City": "Sherbrooke",
    "Country": "Canada",
    "Airport Code": "YSC",
    "": "CYSC",
    "Latitude": 45.4385986328125,
    "Longitude": -71.69139862060547
  },
  {
    "ID": 135,
    "Airport Name": "Saint John Airport",
    "City": "St. John",
    "Country": "Canada",
    "Airport Code": "YSJ",
    "": "CYSJ",
    "Latitude": 45.31610107421875,
    "Longitude": -65.89029693603516
  },
  {
    "ID": 136,
    "Airport Name": "Fort Smith Airport",
    "City": "Fort Smith",
    "Country": "Canada",
    "Airport Code": "YSM",
    "": "CYSM",
    "Latitude": 60.020301818847656,
    "Longitude": -111.96199798583984
  },
  {
    "ID": 137,
    "Airport Name": "Nanisivik Airport",
    "City": "Nanisivik",
    "Country": "Canada",
    "Airport Code": "YSR",
    "": "CYSR",
    "Latitude": 72.982201,
    "Longitude": -84.613602
  },
  {
    "ID": 138,
    "Airport Name": "Summerside Airport",
    "City": "Summerside",
    "Country": "Canada",
    "Airport Code": "YSU",
    "": "CYSU",
    "Latitude": 46.44060134887695,
    "Longitude": -63.83359909057617
  },
  {
    "ID": 139,
    "Airport Name": "Sachs Harbour (David Nasogaluak Jr. Saaryuaq) Airport",
    "City": "Sachs Harbour",
    "Country": "Canada",
    "Airport Code": "YSY",
    "": "CYSY",
    "Latitude": 71.9938964844,
    "Longitude": -125.242996216
  },
  {
    "ID": 140,
    "Airport Name": "Cape Dorset Airport",
    "City": "Cape Dorset",
    "Country": "Canada",
    "Airport Code": "YTE",
    "": "CYTE",
    "Latitude": 64.2300033569,
    "Longitude": -76.5267028809
  },
  {
    "ID": 141,
    "Airport Name": "Thompson Airport",
    "City": "Thompson",
    "Country": "Canada",
    "Airport Code": "YTH",
    "": "CYTH",
    "Latitude": 55.80110168457031,
    "Longitude": -97.86419677734375
  },
  {
    "ID": 142,
    "Airport Name": "CFB Trenton",
    "City": "Trenton",
    "Country": "Canada",
    "Airport Code": "YTR",
    "": "CYTR",
    "Latitude": 44.118900299072266,
    "Longitude": -77.5280990600586
  },
  {
    "ID": 143,
    "Airport Name": "Timmins/Victor M. Power",
    "City": "Timmins",
    "Country": "Canada",
    "Airport Code": "YTS",
    "": "CYTS",
    "Latitude": 48.569698333699996,
    "Longitude": -81.376701355
  },
  {
    "ID": 144,
    "Airport Name": "Billy Bishop Toronto City Centre Airport",
    "City": "Toronto",
    "Country": "Canada",
    "Airport Code": "YTZ",
    "": "CYTZ",
    "Latitude": 43.627499,
    "Longitude": -79.396202
  },
  {
    "ID": 145,
    "Airport Name": "Tuktoyaktuk Airport",
    "City": "Tuktoyaktuk",
    "Country": "Canada",
    "Airport Code": "YUB",
    "": "CYUB",
    "Latitude": 69.43329620361328,
    "Longitude": -133.0260009765625
  },
  {
    "ID": 146,
    "Airport Name": "Montreal / Pierre Elliott Trudeau International Airport",
    "City": "Montreal",
    "Country": "Canada",
    "Airport Code": "YUL",
    "": "CYUL",
    "Latitude": 45.4706001282,
    "Longitude": -73.7407989502
  },
  {
    "ID": 147,
    "Airport Name": "Repulse Bay Airport",
    "City": "Repulse Bay",
    "Country": "Canada",
    "Airport Code": "YUT",
    "": "CYUT",
    "Latitude": 66.5214004517,
    "Longitude": -86.22470092770001
  },
  {
    "ID": 148,
    "Airport Name": "Hall Beach Airport",
    "City": "Hall Beach",
    "Country": "Canada",
    "Airport Code": "YUX",
    "": "CYUX",
    "Latitude": 68.77610015869999,
    "Longitude": -81.2425
  },
  {
    "ID": 149,
    "Airport Name": "Rouyn Noranda Airport",
    "City": "Rouyn",
    "Country": "Canada",
    "Airport Code": "YUY",
    "": "CYUY",
    "Latitude": 48.20610046386719,
    "Longitude": -78.83560180664062
  },
  {
    "ID": 150,
    "Airport Name": "La Ronge Airport",
    "City": "La Ronge",
    "Country": "Canada",
    "Airport Code": "YVC",
    "": "CYVC",
    "Latitude": 55.151401519800004,
    "Longitude": -105.262001038
  },
  {
    "ID": 151,
    "Airport Name": "Vermilion Airport",
    "City": "Vermillion",
    "Country": "Canada",
    "Airport Code": "YVG",
    "": "CYVG",
    "Latitude": 53.355800628699996,
    "Longitude": -110.823997498
  },
  {
    "ID": 152,
    "Airport Name": "Qikiqtarjuaq Airport",
    "City": "Broughton Island",
    "Country": "Canada",
    "Airport Code": "YVM",
    "": "CYVM",
    "Latitude": 67.5457992554,
    "Longitude": -64.03140258789999
  },
  {
    "ID": 153,
    "Airport Name": "Val-d'Or Airport",
    "City": "Val D'or",
    "Country": "Canada",
    "Airport Code": "YVO",
    "": "CYVO",
    "Latitude": 48.0532989502,
    "Longitude": -77.7827987671
  },
  {
    "ID": 154,
    "Airport Name": "Kuujjuaq Airport",
    "City": "Quujjuaq",
    "Country": "Canada",
    "Airport Code": "YVP",
    "": "CYVP",
    "Latitude": 58.096099853515625,
    "Longitude": -68.4269027709961
  },
  {
    "ID": 155,
    "Airport Name": "Norman Wells Airport",
    "City": "Norman Wells",
    "Country": "Canada",
    "Airport Code": "YVQ",
    "": "CYVQ",
    "Latitude": 65.28160095214844,
    "Longitude": -126.7979965209961
  },
  {
    "ID": 156,
    "Airport Name": "Vancouver International Airport",
    "City": "Vancouver",
    "Country": "Canada",
    "Airport Code": "YVR",
    "": "CYVR",
    "Latitude": 49.193901062,
    "Longitude": -123.183998108
  },
  {
    "ID": 157,
    "Airport Name": "Buffalo Narrows Airport",
    "City": "Buffalo Narrows",
    "Country": "Canada",
    "Airport Code": "YVT",
    "": "CYVT",
    "Latitude": 55.8418998718,
    "Longitude": -108.417999268
  },
  {
    "ID": 158,
    "Airport Name": "Wiarton Airport",
    "City": "Wiarton",
    "Country": "Canada",
    "Airport Code": "YVV",
    "": "CYVV",
    "Latitude": 44.7458,
    "Longitude": -81.107201
  },
  {
    "ID": 159,
    "Airport Name": "Petawawa Airport",
    "City": "Petawawa",
    "Country": "Canada",
    "Airport Code": "YWA",
    "": "CYWA",
    "Latitude": 45.95220184326172,
    "Longitude": -77.31919860839844
  },
  {
    "ID": 160,
    "Airport Name": "Winnipeg / James Armstrong Richardson International Airport",
    "City": "Winnipeg",
    "Country": "Canada",
    "Airport Code": "YWG",
    "": "CYWG",
    "Latitude": 49.909999847399995,
    "Longitude": -97.2398986816
  },
  {
    "ID": 161,
    "Airport Name": "Wabush Airport",
    "City": "Wabush",
    "Country": "Canada",
    "Airport Code": "YWK",
    "": "CYWK",
    "Latitude": 52.92190170288086,
    "Longitude": -66.8644027709961
  },
  {
    "ID": 162,
    "Airport Name": "Williams Lake Airport",
    "City": "Williams Lake",
    "Country": "Canada",
    "Airport Code": "YWL",
    "": "CYWL",
    "Latitude": 52.1831016541,
    "Longitude": -122.054000854
  },
  {
    "ID": 163,
    "Airport Name": "Wrigley Airport",
    "City": "Wrigley",
    "Country": "Canada",
    "Airport Code": "YWY",
    "": "CYWY",
    "Latitude": 63.20940017700195,
    "Longitude": -123.43699645996094
  },
  {
    "ID": 164,
    "Airport Name": "Cranbrook/Canadian Rockies International Airport",
    "City": "Cranbrook",
    "Country": "Canada",
    "Airport Code": "YXC",
    "": "CYXC",
    "Latitude": 49.610801696777,
    "Longitude": -115.78199768066
  },
  {
    "ID": 165,
    "Airport Name": "Edmonton City Centre (Blatchford Field) Airport",
    "City": "Edmonton",
    "Country": "Canada",
    "Airport Code": "YXD",
    "": "CYXD",
    "Latitude": 53.5724983215,
    "Longitude": -113.521003723
  },
  {
    "ID": 166,
    "Airport Name": "Saskatoon John G. Diefenbaker International Airport",
    "City": "Saskatoon",
    "Country": "Canada",
    "Airport Code": "YXE",
    "": "CYXE",
    "Latitude": 52.170799255371094,
    "Longitude": -106.69999694824219
  },
  {
    "ID": 167,
    "Airport Name": "Medicine Hat Airport",
    "City": "Medicine Hat",
    "Country": "Canada",
    "Airport Code": "YXH",
    "": "CYXH",
    "Latitude": 50.01890182495117,
    "Longitude": -110.72100067138672
  },
  {
    "ID": 168,
    "Airport Name": "Fort St John Airport",
    "City": "Fort Saint John",
    "Country": "Canada",
    "Airport Code": "YXJ",
    "": "CYXJ",
    "Latitude": 56.23809814453125,
    "Longitude": -120.73999786376953
  },
  {
    "ID": 169,
    "Airport Name": "Sioux Lookout Airport",
    "City": "Sioux Lookout",
    "Country": "Canada",
    "Airport Code": "YXL",
    "": "CYXL",
    "Latitude": 50.11389923095703,
    "Longitude": -91.9052963256836
  },
  {
    "ID": 170,
    "Airport Name": "Pangnirtung Airport",
    "City": "Pangnirtung",
    "Country": "Canada",
    "Airport Code": "YXP",
    "": "CYXP",
    "Latitude": 66.1449966431,
    "Longitude": -65.71360015869999
  },
  {
    "ID": 171,
    "Airport Name": "Earlton (Timiskaming Regional) Airport",
    "City": "Earlton",
    "Country": "Canada",
    "Airport Code": "YXR",
    "": "CYXR",
    "Latitude": 47.697400654599996,
    "Longitude": -79.8473453522
  },
  {
    "ID": 172,
    "Airport Name": "Prince George Airport",
    "City": "Prince George",
    "Country": "Canada",
    "Airport Code": "YXS",
    "": "CYXS",
    "Latitude": 53.8894004822,
    "Longitude": -122.679000854
  },
  {
    "ID": 173,
    "Airport Name": "Northwest Regional Airport Terrace-Kitimat",
    "City": "Terrace",
    "Country": "Canada",
    "Airport Code": "YXT",
    "": "CYXT",
    "Latitude": 54.468498,
    "Longitude": -128.576009
  },
  {
    "ID": 174,
    "Airport Name": "London Airport",
    "City": "London",
    "Country": "Canada",
    "Airport Code": "YXU",
    "": "CYXU",
    "Latitude": 43.035599,
    "Longitude": -81.1539
  },
  {
    "ID": 175,
    "Airport Name": "Abbotsford Airport",
    "City": "Abbotsford",
    "Country": "Canada",
    "Airport Code": "YXX",
    "": "CYXX",
    "Latitude": 49.025299072265625,
    "Longitude": -122.36100006103516
  },
  {
    "ID": 176,
    "Airport Name": "Whitehorse / Erik Nielsen International Airport",
    "City": "Whitehorse",
    "Country": "Canada",
    "Airport Code": "YXY",
    "": "CYXY",
    "Latitude": 60.7095985413,
    "Longitude": -135.067001343
  },
  {
    "ID": 177,
    "Airport Name": "North Bay Jack Garland Airport",
    "City": "North Bay",
    "Country": "Canada",
    "Airport Code": "YYB",
    "": "CYYB",
    "Latitude": 46.363602,
    "Longitude": -79.422798
  },
  {
    "ID": 178,
    "Airport Name": "Calgary International Airport",
    "City": "Calgary",
    "Country": "Canada",
    "Airport Code": "YYC",
    "": "CYYC",
    "Latitude": 51.113899231,
    "Longitude": -114.019996643
  },
  {
    "ID": 179,
    "Airport Name": "Smithers Airport",
    "City": "Smithers",
    "Country": "Canada",
    "Airport Code": "YYD",
    "": "CYYD",
    "Latitude": 54.82469940185547,
    "Longitude": -127.18299865722656
  },
  {
    "ID": 180,
    "Airport Name": "Fort Nelson Airport",
    "City": "Fort Nelson",
    "Country": "Canada",
    "Airport Code": "YYE",
    "": "CYYE",
    "Latitude": 58.8363990784,
    "Longitude": -122.597000122
  },
  {
    "ID": 181,
    "Airport Name": "Penticton Airport",
    "City": "Penticton",
    "Country": "Canada",
    "Airport Code": "YYF",
    "": "CYYF",
    "Latitude": 49.46310043334961,
    "Longitude": -119.60199737548828
  },
  {
    "ID": 182,
    "Airport Name": "Charlottetown Airport",
    "City": "Charlottetown",
    "Country": "Canada",
    "Airport Code": "YYG",
    "": "CYYG",
    "Latitude": 46.290000915527344,
    "Longitude": -63.12110137939453
  },
  {
    "ID": 183,
    "Airport Name": "Taloyoak Airport",
    "City": "Spence Bay",
    "Country": "Canada",
    "Airport Code": "YYH",
    "": "CYYH",
    "Latitude": 69.5466995239,
    "Longitude": -93.5766983032
  },
  {
    "ID": 184,
    "Airport Name": "Victoria International Airport",
    "City": "Victoria",
    "Country": "Canada",
    "Airport Code": "YYJ",
    "": "CYYJ",
    "Latitude": 48.646900177,
    "Longitude": -123.426002502
  },
  {
    "ID": 185,
    "Airport Name": "Lynn Lake Airport",
    "City": "Lynn Lake",
    "Country": "Canada",
    "Airport Code": "YYL",
    "": "CYYL",
    "Latitude": 56.86389923095703,
    "Longitude": -101.07599639892578
  },
  {
    "ID": 186,
    "Airport Name": "Swift Current Airport",
    "City": "Swift Current",
    "Country": "Canada",
    "Airport Code": "YYN",
    "": "CYYN",
    "Latitude": 50.291900634799994,
    "Longitude": -107.691001892
  },
  {
    "ID": 187,
    "Airport Name": "Churchill Airport",
    "City": "Churchill",
    "Country": "Canada",
    "Airport Code": "YYQ",
    "": "CYYQ",
    "Latitude": 58.739200592041016,
    "Longitude": -94.06500244140625
  },
  {
    "ID": 188,
    "Airport Name": "Goose Bay Airport",
    "City": "Goose Bay",
    "Country": "Canada",
    "Airport Code": "YYR",
    "": "CYYR",
    "Latitude": 53.3191986084,
    "Longitude": -60.4258003235
  },
  {
    "ID": 189,
    "Airport Name": "St. John's International Airport",
    "City": "St. John's",
    "Country": "Canada",
    "Airport Code": "YYT",
    "": "CYYT",
    "Latitude": 47.618598938,
    "Longitude": -52.7518997192
  },
  {
    "ID": 190,
    "Airport Name": "Kapuskasing Airport",
    "City": "Kapuskasing",
    "Country": "Canada",
    "Airport Code": "YYU",
    "": "CYYU",
    "Latitude": 49.41389846801758,
    "Longitude": -82.46749877929688
  },
  {
    "ID": 191,
    "Airport Name": "Armstrong Airport",
    "City": "Armstrong",
    "Country": "Canada",
    "Airport Code": "YYW",
    "": "CYYW",
    "Latitude": 50.29029846191406,
    "Longitude": -88.90969848632812
  },
  {
    "ID": 192,
    "Airport Name": "Mont Joli Airport",
    "City": "Mont Joli",
    "Country": "Canada",
    "Airport Code": "YYY",
    "": "CYYY",
    "Latitude": 48.60860061645508,
    "Longitude": -68.20809936523438
  },
  {
    "ID": 193,
    "Airport Name": "Lester B. Pearson International Airport",
    "City": "Toronto",
    "Country": "Canada",
    "Airport Code": "YYZ",
    "": "CYYZ",
    "Latitude": 43.6772003174,
    "Longitude": -79.63059997559999
  },
  {
    "ID": 194,
    "Airport Name": "Downsview Airport",
    "City": "Toronto",
    "Country": "Canada",
    "Airport Code": "YZD",
    "": "CYZD",
    "Latitude": 43.74250030517578,
    "Longitude": -79.4655990600586
  },
  {
    "ID": 195,
    "Airport Name": "Gore Bay Manitoulin Airport",
    "City": "Gore Bay",
    "Country": "Canada",
    "Airport Code": "YZE",
    "": "CYZE",
    "Latitude": 45.88529968261719,
    "Longitude": -82.56780242919922
  },
  {
    "ID": 196,
    "Airport Name": "Yellowknife Airport",
    "City": "Yellowknife",
    "Country": "Canada",
    "Airport Code": "YZF",
    "": "CYZF",
    "Latitude": 62.462799072265625,
    "Longitude": -114.44000244140625
  },
  {
    "ID": 197,
    "Airport Name": "Slave Lake Airport",
    "City": "Slave Lake",
    "Country": "Canada",
    "Airport Code": "YZH",
    "": "CYZH",
    "Latitude": 55.2930984497,
    "Longitude": -114.777000427
  },
  {
    "ID": 198,
    "Airport Name": "Sandspit Airport",
    "City": "Sandspit",
    "Country": "Canada",
    "Airport Code": "YZP",
    "": "CYZP",
    "Latitude": 53.25429916379999,
    "Longitude": -131.813995361
  },
  {
    "ID": 199,
    "Airport Name": "Chris Hadfield Airport",
    "City": "Sarnia",
    "Country": "Canada",
    "Airport Code": "YZR",
    "": "CYZR",
    "Latitude": 42.9994010925293,
    "Longitude": -82.30889892578125
  },
  {
    "ID": 200,
    "Airport Name": "Port Hardy Airport",
    "City": "Port Hardy",
    "Country": "Canada",
    "Airport Code": "YZT",
    "": "CYZT",
    "Latitude": 50.680599212646484,
    "Longitude": -127.36699676513672
  },
  {
    "ID": 201,
    "Airport Name": "Whitecourt Airport",
    "City": "Whitecourt",
    "Country": "Canada",
    "Airport Code": "YZU",
    "": "CYZU",
    "Latitude": 54.14390182495117,
    "Longitude": -115.78700256347656
  },
  {
    "ID": 202,
    "Airport Name": "Sept-Îles Airport",
    "City": "Sept-iles",
    "Country": "Canada",
    "Airport Code": "YZV",
    "": "CYZV",
    "Latitude": 50.22330093383789,
    "Longitude": -66.2656021118164
  },
  {
    "ID": 203,
    "Airport Name": "Teslin Airport",
    "City": "Teslin",
    "Country": "Canada",
    "Airport Code": "YZW",
    "": "CYZW",
    "Latitude": 60.17279815673828,
    "Longitude": -132.7429962158203
  },
  {
    "ID": 204,
    "Airport Name": "CFB Greenwood",
    "City": "Greenwood",
    "Country": "Canada",
    "Airport Code": "YZX",
    "": "CYZX",
    "Latitude": 44.98440170288086,
    "Longitude": -64.91690063476562
  },
  {
    "ID": 205,
    "Airport Name": "Faro Airport",
    "City": "Faro",
    "Country": "Canada",
    "Airport Code": "ZFA",
    "": "CZFA",
    "Latitude": 62.20750045776367,
    "Longitude": -133.37600708007812
  },
  {
    "ID": 206,
    "Airport Name": "Fort Mcpherson Airport",
    "City": "Fort Mcpherson",
    "Country": "Canada",
    "Airport Code": "ZFM",
    "": "CZFM",
    "Latitude": 67.40750122070312,
    "Longitude": -134.86099243164062
  },
  {
    "ID": 207,
    "Airport Name": "Blida Airport",
    "City": "Blida",
    "Country": "Algeria",
    "Airport Code": "QLD",
    "": "DAAB",
    "Latitude": 36.50360107421875,
    "Longitude": 2.8141698837280273
  },
  {
    "ID": 208,
    "Airport Name": "Bou Saada Airport",
    "City": "Bou Saada",
    "Country": "Algeria",
    "Airport Code": "BUJ",
    "": "DAAD",
    "Latitude": 35.33250045776367,
    "Longitude": 4.206389904022217
  },
  {
    "ID": 209,
    "Airport Name": "Soummam Airport",
    "City": "Bejaja",
    "Country": "Algeria",
    "Airport Code": "BJA",
    "": "DAAE",
    "Latitude": 36.7120018005,
    "Longitude": 5.0699200630200005
  },
  {
    "ID": 210,
    "Airport Name": "Houari Boumediene Airport",
    "City": "Algier",
    "Country": "Algeria",
    "Airport Code": "ALG",
    "": "DAAG",
    "Latitude": 36.691001892089844,
    "Longitude": 3.215409994125366
  },
  {
    "ID": 211,
    "Airport Name": "Djanet Inedbirene Airport",
    "City": "Djanet",
    "Country": "Algeria",
    "Airport Code": "DJG",
    "": "DAAJ",
    "Latitude": 24.292801,
    "Longitude": 9.45244
  },
  {
    "ID": 212,
    "Airport Name": "Boufarik Airport",
    "City": "Boufarik",
    "Country": "Algeria",
    "Airport Code": "\\N",
    "": "DAAK",
    "Latitude": 36.545799,
    "Longitude": 2.87611
  },
  {
    "ID": 213,
    "Airport Name": "Reggane Airport",
    "City": "Reggan",
    "Country": "Algeria",
    "Airport Code": "\\N",
    "": "DAAN",
    "Latitude": 26.7101,
    "Longitude": 0.285647
  },
  {
    "ID": 214,
    "Airport Name": "Illizi Takhamalt Airport",
    "City": "Illizi",
    "Country": "Algeria",
    "Airport Code": "VVZ",
    "": "DAAP",
    "Latitude": 26.7234992981,
    "Longitude": 8.62265014648
  },
  {
    "ID": 215,
    "Airport Name": "Ain Oussera Airport",
    "City": "Ain Oussera",
    "Country": "Algeria",
    "Airport Code": "\\N",
    "": "DAAQ",
    "Latitude": 35.52539825439453,
    "Longitude": 2.8787100315093994
  },
  {
    "ID": 216,
    "Airport Name": "Aguenar – Hadj Bey Akhamok Airport",
    "City": "Tamanrasset",
    "Country": "Algeria",
    "Airport Code": "TMR",
    "": "DAAT",
    "Latitude": 22.8115005493,
    "Longitude": 5.45107984543
  },
  {
    "ID": 217,
    "Airport Name": "Jijel Ferhat Abbas Airport",
    "City": "Jijel",
    "Country": "Algeria",
    "Airport Code": "GJL",
    "": "DAAV",
    "Latitude": 36.7951011658,
    "Longitude": 5.87361001968
  },
  {
    "ID": 218,
    "Airport Name": "Mecheria Airport",
    "City": "Mecheria",
    "Country": "Algeria",
    "Airport Code": "MZW",
    "": "DAAY",
    "Latitude": 33.535900116,
    "Longitude": -0.242353007197
  },
  {
    "ID": 219,
    "Airport Name": "Relizane Airport",
    "City": "Relizane",
    "Country": "Algeria",
    "Airport Code": "\\N",
    "": "DAAZ",
    "Latitude": 35.752201,
    "Longitude": 0.626272
  },
  {
    "ID": 220,
    "Airport Name": "Rabah Bitat Airport",
    "City": "Annaba",
    "Country": "Algeria",
    "Airport Code": "AAE",
    "": "DABB",
    "Latitude": 36.822201,
    "Longitude": 7.809174
  },
  {
    "ID": 221,
    "Airport Name": "Mohamed Boudiaf International Airport",
    "City": "Constantine",
    "Country": "Algeria",
    "Airport Code": "CZL",
    "": "DABC",
    "Latitude": 36.2760009765625,
    "Longitude": 6.620389938354492
  },
  {
    "ID": 222,
    "Airport Name": "Cheikh Larbi Tébessi Airport",
    "City": "Tebessa",
    "Country": "Algeria",
    "Airport Code": "TEE",
    "": "DABS",
    "Latitude": 35.4315986633,
    "Longitude": 8.12071990967
  },
  {
    "ID": 224,
    "Airport Name": "Hassi R'Mel Airport",
    "City": "Tilrempt",
    "Country": "Algeria",
    "Airport Code": "HRM",
    "": "DAFH",
    "Latitude": 32.93040084838867,
    "Longitude": 3.311539888381958
  },
  {
    "ID": 225,
    "Airport Name": "Bou Chekif Airport",
    "City": "Tiaret",
    "Country": "Algeria",
    "Airport Code": "TID",
    "": "DAOB",
    "Latitude": 35.3410987854,
    "Longitude": 1.46315002441
  },
  {
    "ID": 226,
    "Airport Name": "Bou Sfer Airport",
    "City": "Bou Sfer",
    "Country": "Algeria",
    "Airport Code": "\\N",
    "": "DAOE",
    "Latitude": 35.73540115356445,
    "Longitude": -0.8053889870643616
  },
  {
    "ID": 227,
    "Airport Name": "Tindouf Airport",
    "City": "Tindouf",
    "Country": "Algeria",
    "Airport Code": "TIN",
    "": "DAOF",
    "Latitude": 27.7003993988,
    "Longitude": -8.167099952700001
  },
  {
    "ID": 228,
    "Airport Name": "Ech Cheliff Airport",
    "City": "Ech-cheliff",
    "Country": "Algeria",
    "Airport Code": "CFK",
    "": "DAOI",
    "Latitude": 36.2126998901,
    "Longitude": 1.33176994324
  },
  {
    "ID": 229,
    "Airport Name": "Tafaraoui Airport",
    "City": "Oran",
    "Country": "Algeria",
    "Airport Code": "TAF",
    "": "DAOL",
    "Latitude": 35.54240036010742,
    "Longitude": -0.5322780013084412
  },
  {
    "ID": 230,
    "Airport Name": "Zenata – Messali El Hadj Airport",
    "City": "Tlemcen",
    "Country": "Algeria",
    "Airport Code": "TLM",
    "": "DAON",
    "Latitude": 35.0167007446,
    "Longitude": -1.45000004768
  },
  {
    "ID": 231,
    "Airport Name": "Es Senia Airport",
    "City": "Oran",
    "Country": "Algeria",
    "Airport Code": "ORN",
    "": "DAOO",
    "Latitude": 35.6239013672,
    "Longitude": -0.6211829781529999
  },
  {
    "ID": 232,
    "Airport Name": "Sidi Bel Abbes Airport",
    "City": "Sidi Bel Abbes",
    "Country": "Algeria",
    "Airport Code": "BFW",
    "": "DAOS",
    "Latitude": 35.1717987061,
    "Longitude": -0.593275010586
  },
  {
    "ID": 233,
    "Airport Name": "Ghriss Airport",
    "City": "Ghriss",
    "Country": "Algeria",
    "Airport Code": "MUW",
    "": "DAOV",
    "Latitude": 35.207698822021484,
    "Longitude": 0.14714199304580688
  },
  {
    "ID": 234,
    "Airport Name": "Touat Cheikh Sidi Mohamed Belkebir Airport",
    "City": "Adrar",
    "Country": "Algeria",
    "Airport Code": "AZR",
    "": "DAUA",
    "Latitude": 27.837600708007812,
    "Longitude": -0.18641400337219238
  },
  {
    "ID": 235,
    "Airport Name": "Biskra Airport",
    "City": "Biskra",
    "Country": "Algeria",
    "Airport Code": "BSK",
    "": "DAUB",
    "Latitude": 34.793300628699996,
    "Longitude": 5.73823022842
  },
  {
    "ID": 236,
    "Airport Name": "El Golea Airport",
    "City": "El Golea",
    "Country": "Algeria",
    "Airport Code": "ELG",
    "": "DAUE",
    "Latitude": 30.571300506591797,
    "Longitude": 2.8595900535583496
  },
  {
    "ID": 237,
    "Airport Name": "Noumérat - Moufdi Zakaria Airport",
    "City": "Ghardaia",
    "Country": "Algeria",
    "Airport Code": "GHA",
    "": "DAUG",
    "Latitude": 32.38410186767578,
    "Longitude": 3.794110059738159
  },
  {
    "ID": 238,
    "Airport Name": "Oued Irara Airport",
    "City": "Hassi Messaoud",
    "Country": "Algeria",
    "Airport Code": "HME",
    "": "DAUH",
    "Latitude": 31.673000335699996,
    "Longitude": 6.140439987180001
  },
  {
    "ID": 239,
    "Airport Name": "In Salah Airport",
    "City": "In Salah",
    "Country": "Algeria",
    "Airport Code": "INZ",
    "": "DAUI",
    "Latitude": 27.250999450699997,
    "Longitude": 2.51202011108
  },
  {
    "ID": 240,
    "Airport Name": "Touggourt Sidi Madhi Airport",
    "City": "Touggourt",
    "Country": "Algeria",
    "Airport Code": "TGR",
    "": "DAUK",
    "Latitude": 33.06779861450195,
    "Longitude": 6.088669776916504
  },
  {
    "ID": 241,
    "Airport Name": "Laghouat Airport",
    "City": "Laghouat",
    "Country": "Algeria",
    "Airport Code": "LOO",
    "": "DAUL",
    "Latitude": 33.764400482199996,
    "Longitude": 2.92833995819
  },
  {
    "ID": 242,
    "Airport Name": "Timimoun Airport",
    "City": "Timimoun",
    "Country": "Algeria",
    "Airport Code": "TMX",
    "": "DAUT",
    "Latitude": 29.2371006012,
    "Longitude": 0.276033014059
  },
  {
    "ID": 243,
    "Airport Name": "Ain el Beida Airport",
    "City": "Ouargla",
    "Country": "Algeria",
    "Airport Code": "OGX",
    "": "DAUU",
    "Latitude": 31.917200088500977,
    "Longitude": 5.412779808044434
  },
  {
    "ID": 244,
    "Airport Name": "In Aménas Airport",
    "City": "Zarzaitine",
    "Country": "Algeria",
    "Airport Code": "IAM",
    "": "DAUZ",
    "Latitude": 28.0515,
    "Longitude": 9.64291
  },
  {
    "ID": 245,
    "Airport Name": "Cadjehoun Airport",
    "City": "Cotonou",
    "Country": "Benin",
    "Airport Code": "COO",
    "": "DBBB",
    "Latitude": 6.357230186462402,
    "Longitude": 2.384350061416626
  },
  {
    "ID": 246,
    "Airport Name": "Ouagadougou Airport",
    "City": "Ouagadougou",
    "Country": "Burkina Faso",
    "Airport Code": "OUA",
    "": "DFFD",
    "Latitude": 12.3532,
    "Longitude": -1.51242
  },
  {
    "ID": 247,
    "Airport Name": "Bobo Dioulasso Airport",
    "City": "Bobo-dioulasso",
    "Country": "Burkina Faso",
    "Airport Code": "BOY",
    "": "DFOO",
    "Latitude": 11.160099983215332,
    "Longitude": -4.33096981048584
  },
  {
    "ID": 248,
    "Airport Name": "Kotoka International Airport",
    "City": "Accra",
    "Country": "Ghana",
    "Airport Code": "ACC",
    "": "DGAA",
    "Latitude": 5.605189800262451,
    "Longitude": -0.16678600013256073
  },
  {
    "ID": 249,
    "Airport Name": "Tamale Airport",
    "City": "Tamale",
    "Country": "Ghana",
    "Airport Code": "TML",
    "": "DGLE",
    "Latitude": 9.55718994140625,
    "Longitude": -0.8632140159606934
  },
  {
    "ID": 250,
    "Airport Name": "Wa Airport",
    "City": "Wa",
    "Country": "Ghana",
    "Airport Code": "\\N",
    "": "DGLW",
    "Latitude": 10.0826997756958,
    "Longitude": -2.507689952850342
  },
  {
    "ID": 251,
    "Airport Name": "Sunyani Airport",
    "City": "Sunyani",
    "Country": "Ghana",
    "Airport Code": "NYI",
    "": "DGSN",
    "Latitude": 7.361830234527588,
    "Longitude": -2.3287599086761475
  },
  {
    "ID": 252,
    "Airport Name": "Takoradi Airport",
    "City": "Takoradi",
    "Country": "Ghana",
    "Airport Code": "TKD",
    "": "DGTK",
    "Latitude": 4.896059989929199,
    "Longitude": -1.7747600078582764
  },
  {
    "ID": 253,
    "Airport Name": "Port Bouet Airport",
    "City": "Abidjan",
    "Country": "Cote d'Ivoire",
    "Airport Code": "ABJ",
    "": "DIAP",
    "Latitude": 5.261390209197998,
    "Longitude": -3.9262900352478027
  },
  {
    "ID": 254,
    "Airport Name": "Bouaké Airport",
    "City": "Bouake",
    "Country": "Cote d'Ivoire",
    "Airport Code": "BYK",
    "": "DIBK",
    "Latitude": 7.738800048828125,
    "Longitude": -5.073669910430908
  },
  {
    "ID": 255,
    "Airport Name": "Daloa Airport",
    "City": "Daloa",
    "Country": "Cote d'Ivoire",
    "Airport Code": "DJO",
    "": "DIDL",
    "Latitude": 6.792809963226318,
    "Longitude": -6.473189830780029
  },
  {
    "ID": 256,
    "Airport Name": "Korhogo Airport",
    "City": "Korhogo",
    "Country": "Cote d'Ivoire",
    "Airport Code": "HGO",
    "": "DIKO",
    "Latitude": 9.38718032837,
    "Longitude": -5.55666017532
  },
  {
    "ID": 257,
    "Airport Name": "Man Airport",
    "City": "Man",
    "Country": "Cote d'Ivoire",
    "Airport Code": "MJC",
    "": "DIMN",
    "Latitude": 7.272069931030273,
    "Longitude": -7.58735990524292
  },
  {
    "ID": 258,
    "Airport Name": "San Pedro Airport",
    "City": "San Pedro",
    "Country": "Cote d'Ivoire",
    "Airport Code": "SPY",
    "": "DISP",
    "Latitude": 4.746719837188721,
    "Longitude": -6.660820007324219
  },
  {
    "ID": 259,
    "Airport Name": "Yamoussoukro Airport",
    "City": "Yamoussoukro",
    "Country": "Cote d'Ivoire",
    "Airport Code": "ASK",
    "": "DIYO",
    "Latitude": 6.9031701088,
    "Longitude": -5.36558008194
  },
  {
    "ID": 260,
    "Airport Name": "Nnamdi Azikiwe International Airport",
    "City": "Abuja",
    "Country": "Nigeria",
    "Airport Code": "ABV",
    "": "DNAA",
    "Latitude": 9.006790161132812,
    "Longitude": 7.263169765472412
  },
  {
    "ID": 261,
    "Airport Name": "Akure Airport",
    "City": "Akure",
    "Country": "Nigeria",
    "Airport Code": "AKR",
    "": "DNAK",
    "Latitude": 7.246739864349365,
    "Longitude": 5.3010101318359375
  },
  {
    "ID": 262,
    "Airport Name": "Benin Airport",
    "City": "Benin",
    "Country": "Nigeria",
    "Airport Code": "BNI",
    "": "DNBE",
    "Latitude": 6.316979885101318,
    "Longitude": 5.5995001792907715
  },
  {
    "ID": 263,
    "Airport Name": "Margaret Ekpo International Airport",
    "City": "Calabar",
    "Country": "Nigeria",
    "Airport Code": "CBQ",
    "": "DNCA",
    "Latitude": 4.976019859313965,
    "Longitude": 8.347200393676758
  },
  {
    "ID": 264,
    "Airport Name": "Akanu Ibiam International Airport",
    "City": "Enugu",
    "Country": "Nigeria",
    "Airport Code": "ENU",
    "": "DNEN",
    "Latitude": 6.474269866943359,
    "Longitude": 7.561960220336914
  },
  {
    "ID": 265,
    "Airport Name": "Gusau Airport",
    "City": "Gusau",
    "Country": "Nigeria",
    "Airport Code": "\\N",
    "": "DNGU",
    "Latitude": 12.1717,
    "Longitude": 6.69611
  },
  {
    "ID": 266,
    "Airport Name": "Ibadan Airport",
    "City": "Ibadan",
    "Country": "Nigeria",
    "Airport Code": "IBA",
    "": "DNIB",
    "Latitude": 7.362460136413574,
    "Longitude": 3.97832989692688
  },
  {
    "ID": 267,
    "Airport Name": "Ilorin International Airport",
    "City": "Ilorin",
    "Country": "Nigeria",
    "Airport Code": "ILR",
    "": "DNIL",
    "Latitude": 8.440210342407227,
    "Longitude": 4.493919849395752
  },
  {
    "ID": 268,
    "Airport Name": "Yakubu Gowon Airport",
    "City": "Jos",
    "Country": "Nigeria",
    "Airport Code": "JOS",
    "": "DNJO",
    "Latitude": 9.639829635620117,
    "Longitude": 8.869050025939941
  },
  {
    "ID": 269,
    "Airport Name": "Kaduna Airport",
    "City": "Kaduna",
    "Country": "Nigeria",
    "Airport Code": "KAD",
    "": "DNKA",
    "Latitude": 10.696000099182129,
    "Longitude": 7.320109844207764
  },
  {
    "ID": 270,
    "Airport Name": "Mallam Aminu International Airport",
    "City": "Kano",
    "Country": "Nigeria",
    "Airport Code": "KAN",
    "": "DNKN",
    "Latitude": 12.0476,
    "Longitude": 8.52462
  },
  {
    "ID": 271,
    "Airport Name": "Maiduguri International Airport",
    "City": "Maiduguri",
    "Country": "Nigeria",
    "Airport Code": "MIU",
    "": "DNMA",
    "Latitude": 11.855299949645996,
    "Longitude": 13.080900192260742
  },
  {
    "ID": 272,
    "Airport Name": "Makurdi Airport",
    "City": "Makurdi",
    "Country": "Nigeria",
    "Airport Code": "MDI",
    "": "DNMK",
    "Latitude": 7.70388,
    "Longitude": 8.61394
  },
  {
    "ID": 273,
    "Airport Name": "Murtala Muhammed International Airport",
    "City": "Lagos",
    "Country": "Nigeria",
    "Airport Code": "LOS",
    "": "DNMM",
    "Latitude": 6.5773701667785645,
    "Longitude": 3.321160078048706
  },
  {
    "ID": 274,
    "Airport Name": "Minna Airport",
    "City": "Minna",
    "Country": "Nigeria",
    "Airport Code": "MXJ",
    "": "DNMN",
    "Latitude": 9.652170181274414,
    "Longitude": 6.462259769439697
  },
  {
    "ID": 275,
    "Airport Name": "Port Harcourt International Airport",
    "City": "Port Hartcourt",
    "Country": "Nigeria",
    "Airport Code": "PHC",
    "": "DNPO",
    "Latitude": 5.0154900550842285,
    "Longitude": 6.94959020614624
  },
  {
    "ID": 276,
    "Airport Name": "Sadiq Abubakar III International Airport",
    "City": "Sokoto",
    "Country": "Nigeria",
    "Airport Code": "SKO",
    "": "DNSO",
    "Latitude": 12.916299819946289,
    "Longitude": 5.207190036773682
  },
  {
    "ID": 277,
    "Airport Name": "Yola Airport",
    "City": "Yola",
    "Country": "Nigeria",
    "Airport Code": "YOL",
    "": "DNYO",
    "Latitude": 9.257550239562988,
    "Longitude": 12.430399894714355
  },
  {
    "ID": 278,
    "Airport Name": "Zaria Airport",
    "City": "Zaria",
    "Country": "Nigeria",
    "Airport Code": "ZAR",
    "": "DNZA",
    "Latitude": 11.1302,
    "Longitude": 7.68581
  },
  {
    "ID": 279,
    "Airport Name": "Maradi Airport",
    "City": "Maradi",
    "Country": "Niger",
    "Airport Code": "MFQ",
    "": "DRRM",
    "Latitude": 13.5024995803833,
    "Longitude": 7.1267499923706055
  },
  {
    "ID": 280,
    "Airport Name": "Diori Hamani International Airport",
    "City": "Niamey",
    "Country": "Niger",
    "Airport Code": "NIM",
    "": "DRRN",
    "Latitude": 13.4815,
    "Longitude": 2.18361
  },
  {
    "ID": 281,
    "Airport Name": "Tahoua Airport",
    "City": "Tahoua",
    "Country": "Niger",
    "Airport Code": "THZ",
    "": "DRRT",
    "Latitude": 14.875699996948242,
    "Longitude": 5.265359878540039
  },
  {
    "ID": 282,
    "Airport Name": "Mano Dayak International Airport",
    "City": "Agadez",
    "Country": "Niger",
    "Airport Code": "AJY",
    "": "DRZA",
    "Latitude": 16.965999603271484,
    "Longitude": 8.000109672546387
  },
  {
    "ID": 283,
    "Airport Name": "Dirkou Airport",
    "City": "Dirkou",
    "Country": "Niger",
    "Airport Code": "\\N",
    "": "DRZD",
    "Latitude": 18.968700408935547,
    "Longitude": 12.86870002746582
  },
  {
    "ID": 284,
    "Airport Name": "Diffa Airport",
    "City": "Diffa",
    "Country": "Niger",
    "Airport Code": "\\N",
    "": "DRZF",
    "Latitude": 13.372900009155273,
    "Longitude": 12.626700401306152
  },
  {
    "ID": 285,
    "Airport Name": "Zinder Airport",
    "City": "Zinder",
    "Country": "Niger",
    "Airport Code": "ZND",
    "": "DRZR",
    "Latitude": 13.779000282287598,
    "Longitude": 8.983759880065918
  },
  {
    "ID": 286,
    "Airport Name": "Monastir Habib Bourguiba International Airport",
    "City": "Monastir",
    "Country": "Tunisia",
    "Airport Code": "MIR",
    "": "DTMB",
    "Latitude": 35.75809860229492,
    "Longitude": 10.75469970703125
  },
  {
    "ID": 287,
    "Airport Name": "Tunis Carthage International Airport",
    "City": "Tunis",
    "Country": "Tunisia",
    "Airport Code": "TUN",
    "": "DTTA",
    "Latitude": 36.85100173950195,
    "Longitude": 10.22719955444336
  },
  {
    "ID": 288,
    "Airport Name": "Sidi Ahmed Air Base",
    "City": "Bizerte",
    "Country": "Tunisia",
    "Airport Code": "\\N",
    "": "DTTB",
    "Latitude": 37.245398,
    "Longitude": 9.79145
  },
  {
    "ID": 289,
    "Airport Name": "Remada Air Base",
    "City": "Remada",
    "Country": "Tunisia",
    "Airport Code": "\\N",
    "": "DTTD",
    "Latitude": 32.30619812011719,
    "Longitude": 10.382100105285645
  },
  {
    "ID": 290,
    "Airport Name": "Gafsa Ksar International Airport",
    "City": "Gafsa",
    "Country": "Tunisia",
    "Airport Code": "GAF",
    "": "DTTF",
    "Latitude": 34.422000885009766,
    "Longitude": 8.822500228881836
  },
  {
    "ID": 291,
    "Airport Name": "Gabès Matmata International Airport",
    "City": "Gabes",
    "Country": "Tunisia",
    "Airport Code": "GAE",
    "": "DTTG",
    "Latitude": 33.87689971923828,
    "Longitude": 10.103300094604492
  },
  {
    "ID": 292,
    "Airport Name": "Borj El Amri Airport",
    "City": "Bordj El Amri",
    "Country": "Tunisia",
    "Airport Code": "\\N",
    "": "DTTI",
    "Latitude": 36.72129821777344,
    "Longitude": 9.94314956665039
  },
  {
    "ID": 293,
    "Airport Name": "Djerba Zarzis International Airport",
    "City": "Djerba",
    "Country": "Tunisia",
    "Airport Code": "DJE",
    "": "DTTJ",
    "Latitude": 33.875,
    "Longitude": 10.775500297546387
  },
  {
    "ID": 294,
    "Airport Name": "El Borma Airport",
    "City": "El Borma",
    "Country": "Tunisia",
    "Airport Code": "EBM",
    "": "DTTR",
    "Latitude": 31.704299926757812,
    "Longitude": 9.254619598388672
  },
  {
    "ID": 295,
    "Airport Name": "Sfax Thyna International Airport",
    "City": "Sfax",
    "Country": "Tunisia",
    "Airport Code": "SFA",
    "": "DTTX",
    "Latitude": 34.71799850463867,
    "Longitude": 10.690999984741211
  },
  {
    "ID": 296,
    "Airport Name": "Tozeur Nefta International Airport",
    "City": "Tozeur",
    "Country": "Tunisia",
    "Airport Code": "TOE",
    "": "DTTZ",
    "Latitude": 33.939701080322266,
    "Longitude": 8.110560417175293
  },
  {
    "ID": 297,
    "Airport Name": "Niamtougou International Airport",
    "City": "Niatougou",
    "Country": "Togo",
    "Airport Code": "LRL",
    "": "DXNG",
    "Latitude": 9.767330169677734,
    "Longitude": 1.091249942779541
  },
  {
    "ID": 298,
    "Airport Name": "Lomé-Tokoin Airport",
    "City": "Lome",
    "Country": "Togo",
    "Airport Code": "LFW",
    "": "DXXX",
    "Latitude": 6.165609836578369,
    "Longitude": 1.2545100450515747
  },
  {
    "ID": 299,
    "Airport Name": "Antwerp International Airport (Deurne)",
    "City": "Antwerp",
    "Country": "Belgium",
    "Airport Code": "ANR",
    "": "EBAW",
    "Latitude": 51.1893997192,
    "Longitude": 4.46027994156
  },
  {
    "ID": 300,
    "Airport Name": "Beauvechain Air Base",
    "City": "Beauvechain",
    "Country": "Belgium",
    "Airport Code": "\\N",
    "": "EBBE",
    "Latitude": 50.75859832763672,
    "Longitude": 4.768330097198486
  },
  {
    "ID": 301,
    "Airport Name": "Kleine Brogel Air Base",
    "City": "Kleine Brogel",
    "Country": "Belgium",
    "Airport Code": "\\N",
    "": "EBBL",
    "Latitude": 51.168301,
    "Longitude": 5.47
  },
  {
    "ID": 302,
    "Airport Name": "Brussels Airport",
    "City": "Brussels",
    "Country": "Belgium",
    "Airport Code": "BRU",
    "": "EBBR",
    "Latitude": 50.901401519800004,
    "Longitude": 4.48443984985
  },
  {
    "ID": 303,
    "Airport Name": "Jehonville Air Base",
    "City": "Bertrix",
    "Country": "Belgium",
    "Airport Code": "\\N",
    "": "EBBX",
    "Latitude": 49.891700744628906,
    "Longitude": 5.2238898277282715
  },
  {
    "ID": 304,
    "Airport Name": "Brussels South Charleroi Airport",
    "City": "Charleroi",
    "Country": "Belgium",
    "Airport Code": "CRL",
    "": "EBCI",
    "Latitude": 50.459202,
    "Longitude": 4.45382
  },
  {
    "ID": 305,
    "Airport Name": "Chièvres Air Base",
    "City": "Chievres",
    "Country": "Belgium",
    "Airport Code": "\\N",
    "": "EBCV",
    "Latitude": 50.575801849365234,
    "Longitude": 3.8310000896453857
  },
  {
    "ID": 306,
    "Airport Name": "Koksijde Air Base",
    "City": "Koksijde",
    "Country": "Belgium",
    "Airport Code": "\\N",
    "": "EBFN",
    "Latitude": 51.090301513671875,
    "Longitude": 2.652780055999756
  },
  {
    "ID": 307,
    "Airport Name": "Florennes Air Base",
    "City": "Florennes",
    "Country": "Belgium",
    "Airport Code": "\\N",
    "": "EBFS",
    "Latitude": 50.2433013916,
    "Longitude": 4.64583015442
  },
  {
    "ID": 308,
    "Airport Name": "Wevelgem Airport",
    "City": "Kortrijk-vevelgem",
    "Country": "Belgium",
    "Airport Code": "KJK",
    "": "EBKT",
    "Latitude": 50.817199707,
    "Longitude": 3.20472002029
  },
  {
    "ID": 309,
    "Airport Name": "Liège Airport",
    "City": "Liege",
    "Country": "Belgium",
    "Airport Code": "LGG",
    "": "EBLG",
    "Latitude": 50.63740158081055,
    "Longitude": 5.443220138549805
  },
  {
    "ID": 310,
    "Airport Name": "Ostend-Bruges International Airport",
    "City": "Ostend",
    "Country": "Belgium",
    "Airport Code": "OST",
    "": "EBOS",
    "Latitude": 51.198898315399994,
    "Longitude": 2.8622200489
  },
  {
    "ID": 311,
    "Airport Name": "Zutendaal Air Base",
    "City": "Zutendaal",
    "Country": "Belgium",
    "Airport Code": "\\N",
    "": "EBSL",
    "Latitude": 50.9474983215332,
    "Longitude": 5.590559959411621
  },
  {
    "ID": 312,
    "Airport Name": "Brustem Airfield Sint Truiden",
    "City": "Sint-truiden",
    "Country": "Belgium",
    "Airport Code": "\\N",
    "": "EBST",
    "Latitude": 50.791901,
    "Longitude": 5.20167
  },
  {
    "ID": 313,
    "Airport Name": "Saint Hubert Air Base",
    "City": "St.-hubert",
    "Country": "Belgium",
    "Airport Code": "\\N",
    "": "EBSU",
    "Latitude": 50.034400939941406,
    "Longitude": 5.440810203552246
  },
  {
    "ID": 314,
    "Airport Name": "Ursel Air Base",
    "City": "Ursel",
    "Country": "Belgium",
    "Airport Code": "\\N",
    "": "EBUL",
    "Latitude": 51.14419937133789,
    "Longitude": 3.475559949874878
  },
  {
    "ID": 315,
    "Airport Name": "Weelde Air Base",
    "City": "Weelde",
    "Country": "Belgium",
    "Airport Code": "\\N",
    "": "EBWE",
    "Latitude": 51.394798278808594,
    "Longitude": 4.9601898193359375
  },
  {
    "ID": 316,
    "Airport Name": "Zoersel (Oostmalle) Airfield",
    "City": "Zoersel",
    "Country": "Belgium",
    "Airport Code": "OBL",
    "": "EBZR",
    "Latitude": 51.264702,
    "Longitude": 4.75333
  },
  {
    "ID": 317,
    "Airport Name": "Flugplatz Bautzen",
    "City": "Bautzen",
    "Country": "Germany",
    "Airport Code": "\\N",
    "": "EDAB",
    "Latitude": 51.193611,
    "Longitude": 14.519722
  },
  {
    "ID": 318,
    "Airport Name": "Altenburg-Nobitz Airport",
    "City": "Altenburg",
    "Country": "Germany",
    "Airport Code": "AOC",
    "": "EDAC",
    "Latitude": 50.981945,
    "Longitude": 12.506389
  },
  {
    "ID": 319,
    "Airport Name": "Dessau Airfield",
    "City": "Dessau",
    "Country": "Germany",
    "Airport Code": "\\N",
    "": "EDAD",
    "Latitude": 51.831694,
    "Longitude": 12.190962
  },
  {
    "ID": 320,
    "Airport Name": "Eisenhüttenstadt Airfield",
    "City": "Eisenhuettenstadt",
    "Country": "Germany",
    "Airport Code": "\\N",
    "": "EDAE",
    "Latitude": 52.195856,
    "Longitude": 14.58753
  },
  {
    "ID": 322,
    "Airport Name": "Großenhain Airport",
    "City": "Suhl",
    "Country": "Germany",
    "Airport Code": "\\N",
    "": "EDAK",
    "Latitude": 51.30805587768555,
    "Longitude": 13.555556297302246
  },
  {
    "ID": 323,
    "Airport Name": "Merseburg Airport",
    "City": "Muehlhausen",
    "Country": "Germany",
    "Airport Code": "\\N",
    "": "EDAM",
    "Latitude": 51.3630556,
    "Longitude": 11.9408333
  },
  {
    "ID": 324,
    "Airport Name": "Halle-Oppin Airport",
    "City": "Halle",
    "Country": "Germany",
    "Airport Code": "\\N",
    "": "EDAQ",
    "Latitude": 51.552223,
    "Longitude": 12.053889
  },
  {
    "ID": 325,
    "Airport Name": "Riesa-Göhlis Airport",
    "City": "Riesa",
    "Country": "Germany",
    "Airport Code": "IES",
    "": "EDAU",
    "Latitude": 51.2936096191,
    "Longitude": 13.3561105728
  },
  {
    "ID": 326,
    "Airport Name": "Rechlin-Lärz Airport",
    "City": "Rechlin-laerz",
    "Country": "Germany",
    "Airport Code": "REB",
    "": "EDAX",
    "Latitude": 53.306388855,
    "Longitude": 12.7522220612
  },
  {
    "ID": 327,
    "Airport Name": "Strausberg Airport",
    "City": "Strausberg",
    "Country": "Germany",
    "Airport Code": "\\N",
    "": "EDAY",
    "Latitude": 52.5805549621582,
    "Longitude": 13.916666984558105
  },
  {
    "ID": 328,
    "Airport Name": "Schönhagen Airport",
    "City": "Schoenhagen",
    "Country": "Germany",
    "Airport Code": "QXH",
    "": "EDAZ",
    "Latitude": 52.203609,
    "Longitude": 13.156389
  },
  {
    "ID": 329,
    "Airport Name": "Barth Airport",
    "City": "Barth",
    "Country": "Germany",
    "Airport Code": "BBH",
    "": "EDBH",
    "Latitude": 54.338253,
    "Longitude": 12.710515
  },
  {
    "ID": 330,
    "Airport Name": "Jena-Schöngleina Airfield",
    "City": "Jena",
    "Country": "Germany",
    "Airport Code": "\\N",
    "": "EDBJ",
    "Latitude": 50.915279,
    "Longitude": 11.714444
  },
  {
    "ID": 331,
    "Airport Name": "Kyritz Airport",
    "City": "Kyritz",
    "Country": "Germany",
    "Airport Code": "\\N",
    "": "EDBK",
    "Latitude": 52.918888092041016,
    "Longitude": 12.425277709960938
  },
  {
    "ID": 332,
    "Airport Name": "Magdeburg \"City\" Airport",
    "City": "Magdeburg",
    "Country": "Germany",
    "Airport Code": "ZMG",
    "": "EDBM",
    "Latitude": 52.073612,
    "Longitude": 11.626389
  },
  {
    "ID": 333,
    "Airport Name": "Rothenburg/Görlitz Airport",
    "City": "Rothenburg/ol",
    "Country": "Germany",
    "Airport Code": "\\N",
    "": "EDBR",
    "Latitude": 51.36333465576172,
    "Longitude": 14.949999809265137
  },
  {
    "ID": 334,
    "Airport Name": "Anklam Airfield",
    "City": "Anklam",
    "Country": "Germany",
    "Airport Code": "\\N",
    "": "EDCA",
    "Latitude": 53.832779,
    "Longitude": 13.668611
  },
  {
    "ID": 335,
    "Airport Name": "Cottbus-Drewitz Airport",
    "City": "Cottbus",
    "Country": "Germany",
    "Airport Code": "CBU",
    "": "EDCD",
    "Latitude": 51.889442,
    "Longitude": 14.531944
  },
  {
    "ID": 336,
    "Airport Name": "Kamenz Airport",
    "City": "Kamenz",
    "Country": "Germany",
    "Airport Code": "\\N",
    "": "EDCM",
    "Latitude": 51.29694366455078,
    "Longitude": 14.1274995803833
  },
  {
    "ID": 337,
    "Airport Name": "Berlin-Schönefeld Airport",
    "City": "Berlin",
    "Country": "Germany",
    "Airport Code": "SXF",
    "": "EDDB",
    "Latitude": 52.380001,
    "Longitude": 13.5225
  },
  {
    "ID": 338,
    "Airport Name": "Dresden Airport",
    "City": "Dresden",
    "Country": "Germany",
    "Airport Code": "DRS",
    "": "EDDC",
    "Latitude": 51.1328010559082,
    "Longitude": 13.767200469970703
  },
  {
    "ID": 339,
    "Airport Name": "Erfurt Airport",
    "City": "Erfurt",
    "Country": "Germany",
    "Airport Code": "ERF",
    "": "EDDE",
    "Latitude": 50.979801177978516,
    "Longitude": 10.958100318908691
  },
  {
    "ID": 340,
    "Airport Name": "Frankfurt am Main Airport",
    "City": "Frankfurt",
    "Country": "Germany",
    "Airport Code": "FRA",
    "": "EDDF",
    "Latitude": 50.033333,
    "Longitude": 8.570556
  },
  {
    "ID": 341,
    "Airport Name": "Münster Osnabrück Airport",
    "City": "Munster",
    "Country": "Germany",
    "Airport Code": "FMO",
    "": "EDDG",
    "Latitude": 52.134601593,
    "Longitude": 7.68483018875
  },
  {
    "ID": 342,
    "Airport Name": "Hamburg Airport",
    "City": "Hamburg",
    "Country": "Germany",
    "Airport Code": "HAM",
    "": "EDDH",
    "Latitude": 53.630401611328,
    "Longitude": 9.9882297515869
  },
  {
    "ID": 343,
    "Airport Name": "Berlin-Tempelhof International Airport",
    "City": "Berlin",
    "Country": "Germany",
    "Airport Code": "THF",
    "": "EDDI",
    "Latitude": 52.472999572753906,
    "Longitude": 13.403900146484375
  },
  {
    "ID": 344,
    "Airport Name": "Cologne Bonn Airport",
    "City": "Cologne",
    "Country": "Germany",
    "Airport Code": "CGN",
    "": "EDDK",
    "Latitude": 50.8658981323,
    "Longitude": 7.1427397728
  },
  {
    "ID": 345,
    "Airport Name": "Düsseldorf Airport",
    "City": "Duesseldorf",
    "Country": "Germany",
    "Airport Code": "DUS",
    "": "EDDL",
    "Latitude": 51.289501,
    "Longitude": 6.76678
  },
  {
    "ID": 346,
    "Airport Name": "Munich Airport",
    "City": "Munich",
    "Country": "Germany",
    "Airport Code": "MUC",
    "": "EDDM",
    "Latitude": 48.353802,
    "Longitude": 11.7861
  },
  {
    "ID": 347,
    "Airport Name": "Nuremberg Airport",
    "City": "Nuernberg",
    "Country": "Germany",
    "Airport Code": "NUE",
    "": "EDDN",
    "Latitude": 49.498699,
    "Longitude": 11.078056
  },
  {
    "ID": 348,
    "Airport Name": "Leipzig/Halle Airport",
    "City": "Leipzig",
    "Country": "Germany",
    "Airport Code": "LEJ",
    "": "EDDP",
    "Latitude": 51.423889,
    "Longitude": 12.236389
  },
  {
    "ID": 349,
    "Airport Name": "Saarbrücken Airport",
    "City": "Saarbruecken",
    "Country": "Germany",
    "Airport Code": "SCN",
    "": "EDDR",
    "Latitude": 49.214599609400004,
    "Longitude": 7.10950994492
  },
  {
    "ID": 350,
    "Airport Name": "Stuttgart Airport",
    "City": "Stuttgart",
    "Country": "Germany",
    "Airport Code": "STR",
    "": "EDDS",
    "Latitude": 48.689899444599995,
    "Longitude": 9.22196006775
  },
  {
    "ID": 351,
    "Airport Name": "Berlin-Tegel Airport",
    "City": "Berlin",
    "Country": "Germany",
    "Airport Code": "TXL",
    "": "EDDT",
    "Latitude": 52.5597,
    "Longitude": 13.2877
  },
  {
    "ID": 352,
    "Airport Name": "Hannover Airport",
    "City": "Hannover",
    "Country": "Germany",
    "Airport Code": "HAJ",
    "": "EDDV",
    "Latitude": 52.461101532,
    "Longitude": 9.685079574580001
  },
  {
    "ID": 353,
    "Airport Name": "Bremen Airport",
    "City": "Bremen",
    "Country": "Germany",
    "Airport Code": "BRE",
    "": "EDDW",
    "Latitude": 53.0475006104,
    "Longitude": 8.78666973114
  },
  {
    "ID": 354,
    "Airport Name": "Frankfurt-Egelsbach Airport",
    "City": "Egelsbach",
    "Country": "Germany",
    "Airport Code": "QEF",
    "": "EDFE",
    "Latitude": 49.959999,
    "Longitude": 8.645833
  },
  {
    "ID": 355,
    "Airport Name": "Frankfurt-Hahn Airport",
    "City": "Hahn",
    "Country": "Germany",
    "Airport Code": "HHN",
    "": "EDFH",
    "Latitude": 49.9487,
    "Longitude": 7.26389
  },
  {
    "ID": 356,
    "Airport Name": "Mannheim-City Airport",
    "City": "Mannheim",
    "Country": "Germany",
    "Airport Code": "MHG",
    "": "EDFM",
    "Latitude": 49.473057,
    "Longitude": 8.514167
  },
  {
    "ID": 357,
    "Airport Name": "Allendorf/Eder Airport",
    "City": "Allendorf",
    "Country": "Germany",
    "Airport Code": "\\N",
    "": "EDFQ",
    "Latitude": 51.03499984741211,
    "Longitude": 8.680832862854004
  },
  {
    "ID": 358,
    "Airport Name": "Worms Airport",
    "City": "Worms",
    "Country": "Germany",
    "Airport Code": "\\N",
    "": "EDFV",
    "Latitude": 49.606945,
    "Longitude": 8.368333
  },
  {
    "ID": 359,
    "Airport Name": "Mainz-Finthen Airport",
    "City": "Mainz",
    "Country": "Germany",
    "Airport Code": "\\N",
    "": "EDFZ",
    "Latitude": 49.967499,
    "Longitude": 8.147222
  },
  {
    "ID": 360,
    "Airport Name": "Eisenach-Kindel Airport",
    "City": "Eisenach",
    "Country": "Germany",
    "Airport Code": "EIB",
    "": "EDGE",
    "Latitude": 50.991604,
    "Longitude": 10.47973
  },
  {
    "ID": 361,
    "Airport Name": "Siegerland Airport",
    "City": "Siegerland",
    "Country": "Germany",
    "Airport Code": "SGE",
    "": "EDGS",
    "Latitude": 50.707698822021484,
    "Longitude": 8.082969665527344
  },
  {
    "ID": 362,
    "Airport Name": "Hamburg-Finkenwerder Airport",
    "City": "Hamburg",
    "Country": "Germany",
    "Airport Code": "XFW",
    "": "EDHI",
    "Latitude": 53.5352783203125,
    "Longitude": 9.835556030273438
  },
  {
    "ID": 363,
    "Airport Name": "Kiel-Holtenau Airport",
    "City": "Kiel",
    "Country": "Germany",
    "Airport Code": "KEL",
    "": "EDHK",
    "Latitude": 54.37944412231445,
    "Longitude": 10.145277976989746
  },
  {
    "ID": 364,
    "Airport Name": "Lübeck Blankensee Airport",
    "City": "Luebeck",
    "Country": "Germany",
    "Airport Code": "LBC",
    "": "EDHL",
    "Latitude": 53.8054008484,
    "Longitude": 10.7192001343
  },
  {
    "ID": 365,
    "Airport Name": "Flugplatz Dahlemer Binz",
    "City": "Dahlemer Binz",
    "Country": "Germany",
    "Airport Code": "\\N",
    "": "EDKV",
    "Latitude": 50.405555725,
    "Longitude": 6.5288891792
  },
  {
    "ID": 366,
    "Airport Name": "Meinerzhagen Airport",
    "City": "Meinerzhagen",
    "Country": "Germany",
    "Airport Code": "\\N",
    "": "EDKZ",
    "Latitude": 51.099998474121094,
    "Longitude": 7.599999904632568
  },
  {
    "ID": 367,
    "Airport Name": "Arnsberg-Menden Airport",
    "City": "Arnsberg",
    "Country": "Germany",
    "Airport Code": "\\N",
    "": "EDLA",
    "Latitude": 51.483890533447266,
    "Longitude": 7.8983330726623535
  },
  {
    "ID": 368,
    "Airport Name": "Essen Mulheim Airport",
    "City": "Essen",
    "Country": "Germany",
    "Airport Code": "ESS",
    "": "EDLE",
    "Latitude": 51.40230178833008,
    "Longitude": 6.9373297691345215
  },
  {
    "ID": 369,
    "Airport Name": "Bielefeld Airport",
    "City": "Bielefeld",
    "Country": "Germany",
    "Airport Code": "BFE",
    "": "EDLI",
    "Latitude": 51.964722,
    "Longitude": 8.544444
  },
  {
    "ID": 370,
    "Airport Name": "Mönchengladbach Airport",
    "City": "Moenchengladbach",
    "Country": "Germany",
    "Airport Code": "MGL",
    "": "EDLN",
    "Latitude": 51.230278,
    "Longitude": 6.504444
  },
  {
    "ID": 371,
    "Airport Name": "Paderborn Lippstadt Airport",
    "City": "Paderborn",
    "Country": "Germany",
    "Airport Code": "PAD",
    "": "EDLP",
    "Latitude": 51.614101409899995,
    "Longitude": 8.616319656369999
  },
  {
    "ID": 372,
    "Airport Name": "Stadtlohn-Vreden Airport",
    "City": "Stadtlohn",
    "Country": "Germany",
    "Airport Code": "\\N",
    "": "EDLS",
    "Latitude": 51.99583435058594,
    "Longitude": 6.8405561447143555
  },
  {
    "ID": 373,
    "Airport Name": "Dortmund Airport",
    "City": "Dortmund",
    "Country": "Germany",
    "Airport Code": "DTM",
    "": "EDLW",
    "Latitude": 51.51829910279999,
    "Longitude": 7.61223983765
  },
  {
    "ID": 374,
    "Airport Name": "Augsburg Airport",
    "City": "Augsburg",
    "Country": "Germany",
    "Airport Code": "AGB",
    "": "EDMA",
    "Latitude": 48.425278,
    "Longitude": 10.931667
  },
  {
    "ID": 375,
    "Airport Name": "Biberach a.d. Riß Airfield",
    "City": "Biberach",
    "Country": "Germany",
    "Airport Code": "\\N",
    "": "EDMB",
    "Latitude": 48.111111,
    "Longitude": 9.762778
  },
  {
    "ID": 376,
    "Airport Name": "Eggenfelden Airport",
    "City": "Eggenfelden",
    "Country": "Germany",
    "Airport Code": "\\N",
    "": "EDME",
    "Latitude": 48.39611053466797,
    "Longitude": 12.723610877990723
  },
  {
    "ID": 377,
    "Airport Name": "Mindelheim-Mattsies Airfield",
    "City": "Mindelheim",
    "Country": "Germany",
    "Airport Code": "\\N",
    "": "EDMN",
    "Latitude": 48.106945,
    "Longitude": 10.525
  },
  {
    "ID": 378,
    "Airport Name": "Oberpfaffenhofen Airport",
    "City": "Oberpfaffenhofen",
    "Country": "Germany",
    "Airport Code": "OBF",
    "": "EDMO",
    "Latitude": 48.081402,
    "Longitude": 11.2831
  },
  {
    "ID": 379,
    "Airport Name": "Straubing Airport",
    "City": "Straubing",
    "Country": "Germany",
    "Airport Code": "RBM",
    "": "EDMS",
    "Latitude": 48.90083312988281,
    "Longitude": 12.516667366027832
  },
  {
    "ID": 380,
    "Airport Name": "Vilshofen Airport",
    "City": "Vilshofen",
    "Country": "Germany",
    "Airport Code": "\\N",
    "": "EDMV",
    "Latitude": 48.6349983215332,
    "Longitude": 13.195555686950684
  },
  {
    "ID": 381,
    "Airport Name": "Leutkirch-Unterzeil Airport",
    "City": "Leutkirch",
    "Country": "Germany",
    "Airport Code": "\\N",
    "": "EDNL",
    "Latitude": 47.858890533447266,
    "Longitude": 10.014166831970215
  },
  {
    "ID": 382,
    "Airport Name": "Friedrichshafen Airport",
    "City": "Friedrichshafen",
    "Country": "Germany",
    "Airport Code": "FDH",
    "": "EDNY",
    "Latitude": 47.671298980699994,
    "Longitude": 9.51148986816
  },
  {
    "ID": 383,
    "Airport Name": "Schwerin Parchim Airport",
    "City": "Parchim",
    "Country": "Germany",
    "Airport Code": "SZW",
    "": "EDOP",
    "Latitude": 53.426998,
    "Longitude": 11.7834
  },
  {
    "ID": 384,
    "Airport Name": "Stendal-Borstel Airport",
    "City": "Stendal",
    "Country": "Germany",
    "Airport Code": "\\N",
    "": "EDOV",
    "Latitude": 52.62888717651367,
    "Longitude": 11.818611145019531
  },
  {
    "ID": 385,
    "Airport Name": "Aalen-Heidenheim/Elchingen Airport",
    "City": "Aalen-heidenheim",
    "Country": "Germany",
    "Airport Code": "\\N",
    "": "EDPA",
    "Latitude": 48.77777862548828,
    "Longitude": 10.264721870422363
  },
  {
    "ID": 386,
    "Airport Name": "Bayreuth Airport",
    "City": "Bayreuth",
    "Country": "Germany",
    "Airport Code": "BYU",
    "": "EDQD",
    "Latitude": 49.985001,
    "Longitude": 11.64
  },
  {
    "ID": 387,
    "Airport Name": "Burg Feuerstein Airport",
    "City": "Burg Feuerstein",
    "Country": "Germany",
    "Airport Code": "URD",
    "": "EDQE",
    "Latitude": 49.794166564941,
    "Longitude": 11.133610725403
  },
  {
    "ID": 388,
    "Airport Name": "Hof-Plauen Airport",
    "City": "Hof",
    "Country": "Germany",
    "Airport Code": "HOQ",
    "": "EDQM",
    "Latitude": 50.288612365722656,
    "Longitude": 11.856389045715332
  },
  {
    "ID": 389,
    "Airport Name": "Haßfurt-Schweinfurt Airport",
    "City": "Hassfurt",
    "Country": "Germany",
    "Airport Code": "\\N",
    "": "EDQT",
    "Latitude": 50.0180549621582,
    "Longitude": 10.529443740844727
  },
  {
    "ID": 390,
    "Airport Name": "Koblenz-Winningen Airfield",
    "City": "Koblenz",
    "Country": "Germany",
    "Airport Code": "\\N",
    "": "EDRK",
    "Latitude": 50.325558,
    "Longitude": 7.528611
  },
  {
    "ID": 391,
    "Airport Name": "Trier-Föhren Airport",
    "City": "Trier",
    "Country": "Germany",
    "Airport Code": "\\N",
    "": "EDRT",
    "Latitude": 49.863888,
    "Longitude": 6.7875
  },
  {
    "ID": 392,
    "Airport Name": "Speyer Airfield",
    "City": "Speyer",
    "Country": "Germany",
    "Airport Code": "\\N",
    "": "EDRY",
    "Latitude": 49.304722,
    "Longitude": 8.451389
  },
  {
    "ID": 393,
    "Airport Name": "Zweibrücken Airport",
    "City": "Zweibruecken",
    "Country": "Germany",
    "Airport Code": "ZQW",
    "": "EDRZ",
    "Latitude": 49.2094,
    "Longitude": 7.40056
  },
  {
    "ID": 394,
    "Airport Name": "Donaueschingen-Villingen Airport",
    "City": "Donaueschingen",
    "Country": "Germany",
    "Airport Code": "ZQL",
    "": "EDTD",
    "Latitude": 47.97333145139999,
    "Longitude": 8.52222156525
  },
  {
    "ID": 395,
    "Airport Name": "Freiburg i. Br. Airport",
    "City": "Freiburg",
    "Country": "Germany",
    "Airport Code": "\\N",
    "": "EDTF",
    "Latitude": 48.022777557400005,
    "Longitude": 7.83249998093
  },
  {
    "ID": 396,
    "Airport Name": "Mengen-Hohentengen Airport",
    "City": "Mengen",
    "Country": "Germany",
    "Airport Code": "\\N",
    "": "EDTM",
    "Latitude": 48.053890228271484,
    "Longitude": 9.372777938842773
  },
  {
    "ID": 397,
    "Airport Name": "Adolf Würth Airport",
    "City": "Schwaebisch Hall",
    "Country": "Germany",
    "Airport Code": "\\N",
    "": "EDTY",
    "Latitude": 49.1183319092,
    "Longitude": 9.783888816829998
  },
  {
    "ID": 398,
    "Airport Name": "Finsterwalde/Schacksdorf Airport",
    "City": "Soest",
    "Country": "Germany",
    "Airport Code": "\\N",
    "": "EDUS",
    "Latitude": 51.607498,
    "Longitude": 13.743611
  },
  {
    "ID": 399,
    "Airport Name": "Braunschweig-Wolfsburg Airport",
    "City": "Braunschweig",
    "Country": "Germany",
    "Airport Code": "BWE",
    "": "EDVE",
    "Latitude": 52.319199,
    "Longitude": 10.5561
  },
  {
    "ID": 400,
    "Airport Name": "Kassel-Calden Airport",
    "City": "Kassel",
    "Country": "Germany",
    "Airport Code": "KSF",
    "": "EDVK",
    "Latitude": 51.417273,
    "Longitude": 9.384967
  },
  {
    "ID": 401,
    "Airport Name": "Hildesheim Airport",
    "City": "Hildesheim",
    "Country": "Germany",
    "Airport Code": "\\N",
    "": "EDVM",
    "Latitude": 52.18138885498047,
    "Longitude": 9.946389198303223
  },
  {
    "ID": 402,
    "Airport Name": "Bremerhaven Airport",
    "City": "Bremerhaven",
    "Country": "Germany",
    "Airport Code": "BRV",
    "": "EDWB",
    "Latitude": 53.506943,
    "Longitude": 8.572778
  },
  {
    "ID": 403,
    "Airport Name": "Emden Airport",
    "City": "Emden",
    "Country": "Germany",
    "Airport Code": "EME",
    "": "EDWE",
    "Latitude": 53.391109,
    "Longitude": 7.2275
  },
  {
    "ID": 404,
    "Airport Name": "Leer-Papenburg Airport",
    "City": "Leer",
    "Country": "Germany",
    "Airport Code": "\\N",
    "": "EDWF",
    "Latitude": 53.271942138671875,
    "Longitude": 7.441667079925537
  },
  {
    "ID": 405,
    "Airport Name": "Wilhelmshaven-Mariensiel Airport",
    "City": "Wilhelmshaven",
    "Country": "Germany",
    "Airport Code": "WVN",
    "": "EDWI",
    "Latitude": 53.502220153808594,
    "Longitude": 8.05222225189209
  },
  {
    "ID": 406,
    "Airport Name": "Borkum Airport",
    "City": "Borkum",
    "Country": "Germany",
    "Airport Code": "BMK",
    "": "EDWR",
    "Latitude": 53.59639,
    "Longitude": 6.709167
  },
  {
    "ID": 407,
    "Airport Name": "Norderney Airport",
    "City": "Norderney",
    "Country": "Germany",
    "Airport Code": "NRD",
    "": "EDWY",
    "Latitude": 53.70694351196289,
    "Longitude": 7.230000019073486
  },
  {
    "ID": 408,
    "Airport Name": "Flensburg-Schäferhaus Airport",
    "City": "Flensburg",
    "Country": "Germany",
    "Airport Code": "FLF",
    "": "EDXF",
    "Latitude": 54.77333450317383,
    "Longitude": 9.378889083862305
  },
  {
    "ID": 409,
    "Airport Name": "Rendsburg-Schachtholm Airport",
    "City": "Rendsburg",
    "Country": "Germany",
    "Airport Code": "\\N",
    "": "EDXR",
    "Latitude": 54.220001220703125,
    "Longitude": 9.599444389343262
  },
  {
    "ID": 410,
    "Airport Name": "Westerland Sylt Airport",
    "City": "Westerland",
    "Country": "Germany",
    "Airport Code": "GWT",
    "": "EDXW",
    "Latitude": 54.9132003784,
    "Longitude": 8.34047031403
  },
  {
    "ID": 411,
    "Airport Name": "Ämari Air Base",
    "City": "Armari Air Force Base",
    "Country": "Estonia",
    "Airport Code": "\\N",
    "": "EEEI",
    "Latitude": 59.26029968261719,
    "Longitude": 24.208499908447266
  },
  {
    "ID": 412,
    "Airport Name": "Kärdla Airport",
    "City": "Kardla",
    "Country": "Estonia",
    "Airport Code": "KDL",
    "": "EEKA",
    "Latitude": 58.99079895019531,
    "Longitude": 22.830699920654297
  },
  {
    "ID": 413,
    "Airport Name": "Kuressaare Airport",
    "City": "Kuressaare",
    "Country": "Estonia",
    "Airport Code": "URE",
    "": "EEKE",
    "Latitude": 58.22990036010742,
    "Longitude": 22.50950050354004
  },
  {
    "ID": 414,
    "Airport Name": "Pärnu Airport",
    "City": "Parnu",
    "Country": "Estonia",
    "Airport Code": "EPU",
    "": "EEPU",
    "Latitude": 58.41899871826172,
    "Longitude": 24.47279930114746
  },
  {
    "ID": 415,
    "Airport Name": "Lennart Meri Tallinn Airport",
    "City": "Tallinn-ulemiste International",
    "Country": "Estonia",
    "Airport Code": "TLL",
    "": "EETN",
    "Latitude": 59.41329956049999,
    "Longitude": 24.832799911499997
  },
  {
    "ID": 416,
    "Airport Name": "Tartu Airport",
    "City": "Tartu",
    "Country": "Estonia",
    "Airport Code": "TAY",
    "": "EETU",
    "Latitude": 58.3074989319,
    "Longitude": 26.690399169900004
  },
  {
    "ID": 417,
    "Airport Name": "Enontekio Airport",
    "City": "Enontekio",
    "Country": "Finland",
    "Airport Code": "ENF",
    "": "EFET",
    "Latitude": 68.362602233887,
    "Longitude": 23.424299240112
  },
  {
    "ID": 418,
    "Airport Name": "Eura Airport",
    "City": "Eura",
    "Country": "Finland",
    "Airport Code": "\\N",
    "": "EFEU",
    "Latitude": 61.1161003112793,
    "Longitude": 22.201400756835938
  },
  {
    "ID": 419,
    "Airport Name": "Halli Airport",
    "City": "Halli",
    "Country": "Finland",
    "Airport Code": "KEV",
    "": "EFHA",
    "Latitude": 61.856039,
    "Longitude": 24.786686
  },
  {
    "ID": 420,
    "Airport Name": "Helsinki Malmi Airport",
    "City": "Helsinki",
    "Country": "Finland",
    "Airport Code": "HEM",
    "": "EFHF",
    "Latitude": 60.254600524902344,
    "Longitude": 25.042800903320312
  },
  {
    "ID": 421,
    "Airport Name": "Helsinki Vantaa Airport",
    "City": "Helsinki",
    "Country": "Finland",
    "Airport Code": "HEL",
    "": "EFHK",
    "Latitude": 60.317199707031,
    "Longitude": 24.963300704956
  },
  {
    "ID": 422,
    "Airport Name": "Hameenkyro Airport",
    "City": "Hameenkyro",
    "Country": "Finland",
    "Airport Code": "\\N",
    "": "EFHM",
    "Latitude": 61.689701080322266,
    "Longitude": 23.073699951171875
  },
  {
    "ID": 423,
    "Airport Name": "Hanko Airport",
    "City": "Hanko",
    "Country": "Finland",
    "Airport Code": "\\N",
    "": "EFHN",
    "Latitude": 59.848899841308594,
    "Longitude": 23.083599090576172
  },
  {
    "ID": 424,
    "Airport Name": "Hyvinkää Airfield",
    "City": "Hyvinkaa",
    "Country": "Finland",
    "Airport Code": "HYV",
    "": "EFHV",
    "Latitude": 60.6543998718,
    "Longitude": 24.8810997009
  },
  {
    "ID": 425,
    "Airport Name": "Kiikala Airport",
    "City": "Kikala",
    "Country": "Finland",
    "Airport Code": "\\N",
    "": "EFIK",
    "Latitude": 60.4625015259,
    "Longitude": 23.6525001526
  },
  {
    "ID": 426,
    "Airport Name": "Immola Airport",
    "City": "Immola",
    "Country": "Finland",
    "Airport Code": "\\N",
    "": "EFIM",
    "Latitude": 61.24919891357422,
    "Longitude": 28.90369987487793
  },
  {
    "ID": 427,
    "Airport Name": "Kitee Airport",
    "City": "Kitee",
    "Country": "Finland",
    "Airport Code": "KTQ",
    "": "EFIT",
    "Latitude": 62.1661,
    "Longitude": 30.073601
  },
  {
    "ID": 428,
    "Airport Name": "Ivalo Airport",
    "City": "Ivalo",
    "Country": "Finland",
    "Airport Code": "IVL",
    "": "EFIV",
    "Latitude": 68.607299804688,
    "Longitude": 27.405300140381
  },
  {
    "ID": 429,
    "Airport Name": "Joensuu Airport",
    "City": "Joensuu",
    "Country": "Finland",
    "Airport Code": "JOE",
    "": "EFJO",
    "Latitude": 62.662899017334,
    "Longitude": 29.607500076294
  },
  {
    "ID": 430,
    "Airport Name": "Jyvaskyla Airport",
    "City": "Jyvaskyla",
    "Country": "Finland",
    "Airport Code": "JYV",
    "": "EFJY",
    "Latitude": 62.399501800537,
    "Longitude": 25.678300857544
  },
  {
    "ID": 431,
    "Airport Name": "Kauhava Airport",
    "City": "Kauhava",
    "Country": "Finland",
    "Airport Code": "KAU",
    "": "EFKA",
    "Latitude": 63.127102,
    "Longitude": 23.051399
  },
  {
    "ID": 432,
    "Airport Name": "Kemi-Tornio Airport",
    "City": "Kemi",
    "Country": "Finland",
    "Airport Code": "KEM",
    "": "EFKE",
    "Latitude": 65.778701782227,
    "Longitude": 24.582099914551
  },
  {
    "ID": 433,
    "Airport Name": "Kajaani Airport",
    "City": "Kajaani",
    "Country": "Finland",
    "Airport Code": "KAJ",
    "": "EFKI",
    "Latitude": 64.285499572754,
    "Longitude": 27.692399978638
  },
  {
    "ID": 434,
    "Airport Name": "Kauhajoki Airport",
    "City": "Kauhajoki",
    "Country": "Finland",
    "Airport Code": "KHJ",
    "": "EFKJ",
    "Latitude": 62.4625015259,
    "Longitude": 22.3931007385
  },
  {
    "ID": 435,
    "Airport Name": "Kokkola-Pietarsaari Airport",
    "City": "Kruunupyy",
    "Country": "Finland",
    "Airport Code": "KOK",
    "": "EFKK",
    "Latitude": 63.721199035645,
    "Longitude": 23.143100738525
  },
  {
    "ID": 436,
    "Airport Name": "Kemijarvi Airport",
    "City": "Kemijarvi",
    "Country": "Finland",
    "Airport Code": "\\N",
    "": "EFKM",
    "Latitude": 66.712898,
    "Longitude": 27.156799
  },
  {
    "ID": 437,
    "Airport Name": "Kuusamo Airport",
    "City": "Kuusamo",
    "Country": "Finland",
    "Airport Code": "KAO",
    "": "EFKS",
    "Latitude": 65.987602233887,
    "Longitude": 29.239400863647
  },
  {
    "ID": 438,
    "Airport Name": "Kittilä Airport",
    "City": "Kittila",
    "Country": "Finland",
    "Airport Code": "KTT",
    "": "EFKT",
    "Latitude": 67.700996398926,
    "Longitude": 24.846799850464
  },
  {
    "ID": 439,
    "Airport Name": "Kuopio Airport",
    "City": "Kuopio",
    "Country": "Finland",
    "Airport Code": "KUO",
    "": "EFKU",
    "Latitude": 63.007099151611,
    "Longitude": 27.797800064087
  },
  {
    "ID": 440,
    "Airport Name": "Lahti Vesivehmaa Airport",
    "City": "Vesivehmaa",
    "Country": "Finland",
    "Airport Code": "QLF",
    "": "EFLA",
    "Latitude": 61.144199,
    "Longitude": 25.693501
  },
  {
    "ID": 441,
    "Airport Name": "Lappeenranta Airport",
    "City": "Lappeenranta",
    "Country": "Finland",
    "Airport Code": "LPP",
    "": "EFLP",
    "Latitude": 61.044601,
    "Longitude": 28.144743
  },